#SampleID	sample_type	Type	Flag	Entry.Id	CurrentLat	CurrentLong	grain.base.rye	grain.base.bleached.wheat	grain.base.whole.wheat	grain.base.unbleached	City	State.Province.Region	Country	Starter.age.years	WhoMadeBin	StorageLocBin	FeedPerMo	Fruity	Sour	musty	medicinal	biscuity	floral	NoSmell	FreqOpenedPerWeek	tap	filtered	bottled	rainwater	snow	well	otherWater	Cat	Dog	ContainerMaterial	ContainerLid	Temp	Seasnlty	MaxTemp	MinTemp	Prec	npp
S_1	sourdough_starter	Starter	Keep	123	43.03	-89.49	1	0	0	0	Madison	WI	United States	4	Individual	Refrigerator	4	0	1	0	0	0	0	0	7	1	0	0	0	0	0	0	0	0	Glass	NonPorous	77	10538	283	-136	805	3.36E+11
S_10	sourdough_starter	Starter	Keep	479	39.21	-77.31	1	0	0	0	Boyds 	MD	United States	5	Individual	Refrigerator	3	0	1	0	0	0	0	0	7	0	0	0	0	0	0	1	1	1	Glass	NonPorous	117	8531	297	-59	1032	4.63E+11
S_100	sourdough_starter	Starter	Keep	149	60.18	24.92	1	0	0	0	Helsinki	Uusimaa	Finland	50	Individual	Roomtemp	0	0	0	0	0	0	0	1	3.5	1	0	0	0	0	0	0	0	1	Wood	NonPorous	49	8110	208	-90	650	18448482304
S_101	sourdough_starter	Starter	Keep	235	34.27	-118.91	0	0	1	0	Moorpark	CA	United States	0.916666667	Individual	Refrigerator	5	0	1	0	0	0	0	0	7	0	1	0	0	0	0	0	0	0	Ceramic	NonPorous	159	3487	280	51	438	3.49E+11
S_102	sourdough_starter	Starter	Keep	406	33.91	-84.31	1	0	0	1	Atlanta	GA	United States	4	Individual	Roomtemp	12	1	0	0	0	0	0	0	1	0	1	0	0	0	0	0	1	0	Glass	Porous	154	7258	311	-10	1351	4.83E+11
S_103	sourdough_starter	Starter	Keep	250	51.05	-114.18	0	0	0	1	Calgary	Alberta	Canada	2	Individual	Refrigerator	4	1	0	0	0	0	0	0	1.4	1	0	0	0	0	0	0	0	0	Glass	NonPorous	27	8933	224	-172	463	1.95E+11
S_104	sourdough_starter	Starter	Keep	459	37.73	-122.41	0	0	0	1	San Francisco	CA	United States	10	Individual	Fridgeandroomtemp	3	1	1	0	0	1	0	0	30	0	1	0	0	0	0	1	0	1	Ceramic	NonPorous	138	2355	217	66	591	47359762432
S_105	sourdough_starter	Starter	Keep	309	39.94	-76.7	0	0	1	0	York	PA	United States	30	Individual	Refrigerator	4	0	1	0	0	0	0	0	7	1	0	0	0	0	0	0	1	0	Ceramic	NonPorous	111	8748	296	-64	1037	3.57E+11
S_106	sourdough_starter	Starter	Keep	628	38.26	-122.04	1	0	0	0	Fairfield	CA	United States	0.583333333	Individual	Refrigerator	4	0	1	0	0	0	0	0	7	0	1	0	0	0	0	0	0	0	Glass	NonPorous	152	4950	303	29	582	5.06E+11
S_109	sourdough_starter	Starter	Keep	626	42.35	-71.09	0	0	0	1	Boston	MA	United States	200	Company/Business	Refrigerator	4	0	0	0	0	0	0	0	7	1	0	0	0	0	0	0	0	0	Ceramic	NonPorous	96	8769	281	-81	1121	3.62E+11
S_11	sourdough_starter	Starter	Keep	267	38.96	-77.13	0	0	1	1	Bethesda	MD	United States	4	Individual	Roomtemp	12	1	0	0	0	0	0	0	1	0	1	0	0	0	0	0	0	0	Stainless Steel	NonPorous	129	8534	307	-46	1035	4.19E+11
S_110	sourdough_starter	Starter	Keep	131	42.39	-71.11	0	0	0	1	Somervilee	MA	United States	0.416666667	Individual	Refrigerator	4	1	0	0	0	0	0	0	7	1	0	0	0	0	0	0	0	0	Glass	NonPorous	96	8769	281	-81	1121	3.62E+11
S_111	sourdough_starter	Starter	Keep	598	44.49	-72.37	0	0	0	1	Hardwick	VT	United States	0.75	Individual	Roomtemp	12	0	1	0	0	0	1	0	7	1	0	0	0	0	0	0	1	1	Ceramic	NonPorous	49	9986	250	-156	1046	3.39E+11
S_112	sourdough_starter	Starter	Keep	537	42.34	-71.08	0	0	0	1	Boston	MA	United States	1	Individual	Refrigerator	4	1	0	0	0	0	0	0	7	0	1	0	0	0	0	1	0	0	Plastic	NonPorous	96	8769	281	-81	1121	3.62E+11
S_113	sourdough_starter	Starter	Keep	572	42.38	-71.11	0	0	0	1	Somerville	MA	United States	1.5	Company/Business	Refrigerator	4	1	1	0	0	0	0	0	7	1	0	0	0	0	0	0	0	0	Glass	NonPorous	96	8769	281	-81	1121	3.62E+11
S_114	sourdough_starter	Starter	Keep	436	42.96	-81.4	0	0	0	1	Komoka	Ontario	Canada	1.666666667	Individual	Refrigerator	2	0	1	0	0	0	0	0	7	0	1	0	0	0	0	0	0	0	Glass	NonPorous	75	9268	260	-96	938	3.19E+11
S_115	sourdough_starter	Starter	Keep	604	37.18	-3.6	0	0	0	1	Granada	Granada	Spain	3.5	Individual	Refrigerator	4	1	0	0	0	0	0	0	3.5	1	0	0	0	0	0	0	0	0	Glass	NonPorous	142	6500	328	12	520	2.20E+11
S_116	sourdough_starter	Starter	Keep	364	39.62	-79.95	0	0	0	1	Morgantown	WV	United States	120	Individual	NA	8	1	1	0	0	0	0	0	3.75	1	1	0	0	0	0	0	0	1	Glass	Porous	103	8413	281	-74	1138	4.05E+11
S_117	sourdough_starter	Starter	Keep	448	39.55	-119.79	0	0	0	1	Reno	NV	United States	15	Individual	Refrigerator	4	0	1	0	0	0	0	0	10	1	0	0	0	0	0	0	0	0	Ceramic	NonPorous	98	7322	317	-70	208	1.24E+11
S_118	sourdough_starter	Starter	Keep	566	37.8	-122.44	0	0	1	0	San Francisco	CA	United States	3	Individual	Refrigerator	12	1	1	0	1	0	0	0	2.8	0	1	0	0	0	0	0	0	0	Plastic	NonPorous	138	2355	217	66	591	3.25E+11
S_119	sourdough_starter	Starter	Keep	627	42.61	-111.59	0	0	1	0	Soda Springs	ID	United States	4	Individual	Refrigerator	4	1	1	0	0	0	0	0	7	0	0	0	0	0	1	0	0	1	Glass	NonPorous	42	8590	268	-133	433	2.26E+11
S_12	sourdough_starter	Starter	Keep	102	35.11	-78.87	1	0	0	0	Fayetteville	NC	United States	0.270833333	Individual	Refrigerator	4	0	0	0	0	0	0	0	7	0	1	0	0	0	0	0	0	1	Glass	NonPorous	159	7405	317	-6	1187	4.26E+11
S_120	sourdough_starter	Starter	Keep	74	39.95	-75.22	0	0	1	1	Philadelphia	PA	United States	0.416666667	Individual	Refrigerator	8	1	1	0	0	1	0	0	3.5	0	1	0	0	0	0	0	1	0	Plastic	NonPorous	124	8775	302	-47	1109	2.68E+11
S_122	sourdough_starter	Starter	Keep	87	35.8	-78.68	0	0	1	0	Raleigh	NC	United States	0.75	Individual	Refrigerator	4	0	1	0	0	0	0	0	7	0	0	0	0	0	0	1	0	0	Glass	NonPorous	152	7546	315	-16	1148	4.26E+11
S_123	sourdough_starter	Starter	Keep	319	36.29	-94.18	0	0	1	0	Rogers	AR	United States	0.583333333	Individual	Refrigerator	4	0	1	0	0	0	0	0	7	1	0	0	0	0	0	0	0	0	Glass	NonPorous	138	8449	320	-53	1145	4.47E+11
S_124	sourdough_starter	Starter	Keep	284	39.6	-77.97	0	0	1	0	Hedgesville	WV	United States	1	Individual	Refrigerator	8	1	0	0	0	0	0	0	3.5	0	0	0	0	0	1	0	1	1	Stainless Steel	NonPorous	113	8712	301	-66	968	4.43E+11
S_125	sourdough_starter	Starter	Keep	434	38.44	-121.96	0	0	0	1	Vacaville 	CA	United States	0.5	Individual	Roomtemp	12	0	1	0	0	0	0	0	0.5	0	0	0	0	0	1	0	0	0	Plastic	NonPorous	159	5839	340	25	561	4.23E+11
S_126	sourdough_starter	Starter	Keep	664	41.14	-73.77	0	0	0	1	Pleasantville	NY	United States	3	Company/Business	Refrigerator	4	1	0	0	0	0	0	0	7	0	1	0	0	0	0	0	0	1	Ceramic	NonPorous	105	8758	285	-66	1224	3.82E+11
S_127	sourdough_starter	Starter	Keep	631	35.98	-84.35	0	0	0	1	Oak Ridge	TN	United States	30	Individual	Refrigerator	4	0	0	1	0	0	0	0	7	1	0	0	0	0	0	0	1	0	Glass	NonPorous	138	7906	308	-38	1369	4.51E+11
S_128	sourdough_starter	Starter	Keep	492	40.38	-74.7	0	0	0	1	Skillman	NJ	United States	16	Individual	Refrigerator	2	0	1	0	0	1	0	0	10	0	1	0	0	0	0	0	0	0	Glass	NonPorous	109	8687	295	-67	1178	4.13E+11
S_129	sourdough_starter	Starter	Keep	444	46.89	-114.08	0	0	0	1	Missoula	MT	United States	1.5	Individual	Refrigerator	4	1	0	0	0	0	0	0	7	0	0	0	0	0	1	0	0	0	Plastic	NonPorous	65	8166	283	-96	374	2.58E+11
S_13	sourdough_starter	Starter	Keep	221	40.66	-77.59	0	0	0	1	Reedsville	PA	United States	12	Individual	Refrigerator	4	0	1	0	0	0	0	0	7	0	0	0	0	0	1	0	1	0	Plastic	NonPorous	100	8904	287	-79	1015	4.02E+11
S_130	sourdough_starter	Starter	Keep	440	48.7	-119.44	0	0	1	0	Tonasket	WA	United States	0.25	Company/Business	Refrigerator	5	0	0	0	0	0	0	0	6	0	0	0	0	0	1	0	1	1	Glass	NonPorous	86	8460	291	-80	308	1.69E+11
S_131	sourdough_starter	Starter	Keep	42	46.73	-117	0	0	0	1	Moscow	ID	United States	2	Individual	Refrigerator	6	0	1	0	0	0	0	0	3.5	0	1	0	0	0	0	0	0	0	Glass	NonPorous	73	6966	272	-64	655	2.36E+11
S_134	sourdough_starter	Starter	Keep	558	48.28	-116.57	0	0	0	1	Sandpoint	ID	United States	100	Company/Business	Roomtemp	12	0	0	0	0	0	0	0	1	0	1	0	0	0	0	0	1	0	Glass	NonPorous	66	7428	266	-72	808	3.24E+11
S_135	sourdough_starter	Starter	Keep	470	44.05	-92.49	0	0	0	1	Rochester 	MN	United States	2	Individual	Refrigerator	5	0	0	0	0	0	0	0	6	0	1	0	0	0	0	0	0	0	Glass	NonPorous	66	11212	280	-163	804	3.29E+11
S_136	sourdough_starter	Starter	Keep	104	38.81	-77.06	1	1	0	1	Alexandria	VI	United States	5	Individual	Refrigerator	3	0	1	1	0	0	0	0	7	1	0	0	0	0	0	0	0	1	Glass	NonPorous	132	8446	306	-41	1009	4.19E+11
S_137	sourdough_starter	Starter	Keep	308	46.73	-116.97	0	0	0	1	Moscow	ID	United States	2	Company/Business	Refrigerator	4	0	1	0	0	0	0	0	7	1	0	0	0	0	0	0	1	0	Glass	NonPorous	73	6966	272	-64	655	2.36E+11
S_138	sourdough_starter	Starter	Keep	642	48.04	-123.44	0	0	0	1	Port Angeles	WA	United States	NA	Individual	Refrigerator	12	0	1	0	0	0	0	0	3.5	0	0	0	0	0	1	0	1	0	Glass	NonPorous	77	4586	203	-11	1397	4.39E+11
S_139	sourdough_starter	Starter	Keep	651	47.25	-122.46	0	0	0	1	Tacoma	WA	United States	2	Individual	Roomtemp	12	1	1	0	0	0	1	0	2.8	0	1	1	0	0	0	0	0	1	Glass	Porous	104	4935	243	2	1035	3.58E+11
S_14	sourdough_starter	Starter	Keep	460	43.64	-70.41	0	0	0	1	Gorham	ME	United States	NA	Individual	Refrigerator	2	1	0	0	0	0	0	0	15	0	1	0	0	0	0	0	1	0	Glass	NonPorous	79	9209	271	-113	1147	32540782592
S_140	sourdough_starter	Starter	Keep	617	38.11	-122.57	0	0	1	1	Novato	CA	United States	3	Individual	Refrigerator	2	0	1	1	0	0	0	0	NA	1	0	0	0	0	0	0	0	0	Plastic	NonPorous	139	3722	258	39	919	4.71E+11
S_141	sourdough_starter	Starter	Keep	464	37.44	-77.47	0	0	1	1	N Chesterfield	VA	United States	1	Individual	Refrigerator	4	0	1	0	1	0	0	0	7	1	0	0	0	0	0	1	1	0	Glass	NonPorous	142	8004	316	-32	1101	4.12E+11
S_142	sourdough_starter	Starter	Keep	438	35.97	-84.19	0	1	0	0	Knoxville	TN	United States	30	Individual	Roomtemp	12	0	1	0	0	0	0	0	1	0	0	1	0	0	0	0	1	1	Glass	NonPorous	139	7916	308	-35	1356	4.43E+11
S_143	sourdough_starter	Starter	Keep	409	34.08	-116.37	0	1	1	0	Yucca Valley	CA	United States	5	Individual	Roomtemp	12	0	0	0	0	0	0	0	2.8	0	1	0	0	0	0	0	1	0	Glass	NonPorous	156	6725	353	2	317	65626468352
S_144	sourdough_starter	Starter	Keep	219	34.28	-118.55	0	1	0	0	Porter Ranch	CA	United States	2	Individual	Refrigerator	4	1	0	0	0	0	0	0	NA	0	1	0	0	0	0	0	1	0	Glass	NonPorous	165	4457	306	45	463	2.94E+11
S_145	sourdough_starter	Starter	Keep	204	37.75	-122.46	0	0	0	1	San Francisco	CA	United States	6.5	Individual	Roomtemp	12	1	1	0	0	0	0	0	1.4	0	1	0	0	0	0	0	1	0	Glass	NonPorous	138	2355	217	66	591	47359762432
S_146	sourdough_starter	Starter	Keep	263	34.77	-92.42	0	0	0	1	Little Rock	AR	United States	8	Individual	Refrigerator	4	1	0	0	0	0	0	0	7	0	1	0	0	0	0	0	1	0	Plastic	NonPorous	164	8014	336	-15	1300	4.87E+11
S_147	sourdough_starter	Starter	Keep	390	37.35	-79.84	0	0	0	1	Troutville	VA	United States	15	Company/Business	Refrigerator	1	0	1	0	0	0	0	0	60.83333333	1	0	0	0	0	0	0	1	0	Ceramic	NonPorous	126	7882	301	-43	1026	4.39E+11
S_148	sourdough_starter	Starter	Keep	195	38.92	-77.05	1	0	1	1	Washington	DC	United States	6	Individual	Fridgeandroomtemp	8	1	1	0	0	0	1	0	5	1	0	0	0	0	0	0	0	0	Stainless Steel	NonPorous	129	8534	307	-46	1035	4.19E+11
S_149	sourdough_starter	Starter	Keep	592	44.03	-123.1	1	0	1	1	Eugene	OR	United States	8	Company/Business	Refrigerator	2	0	1	1	0	0	0	0	15	1	0	0	0	0	0	0	0	0	Plastic	NonPorous	114	5107	274	12	1231	4.21E+11
S_15	sourdough_starter	Starter	Keep	71	46.86	-122.22	0	0	1	0	Eatonville	WA	United States	12	Individual	Refrigerator	3	1	1	0	0	0	0	0	7	0	0	0	0	0	1	0	0	0	Glass	NonPorous	94	4928	238	-7	1372	4.78E+11
S_150	sourdough_starter	Starter	Keep	540	38.87	-77.08	0	0	0	1	Arlington	VA	United States	30	Individual	Refrigerator	4	1	0	0	0	0	0	0	7	0	1	0	0	0	0	0	0	0	Plastic	NonPorous	129	8534	307	-46	1035	4.19E+11
S_151	sourdough_starter	Starter	Keep	647	43.81	-88.48	0	0	1	0	Norrh Fond Du Lac	WI	United States	1.5	Individual	Refrigerator	5	0	1	0	0	0	0	0	3.5	1	0	0	0	0	0	0	0	1	Glass	NonPorous	73	10624	277	-136	776	2.73E+11
S_152	sourdough_starter	Starter	Keep	127	39.67	-105.14	0	1	0	0	Lakewood	CO	United States	1.416666667	Individual	Fridgeandroomtemp	6	1	1	0	0	0	0	0	10	1	0	0	0	0	0	0	0	0	Plastic	NonPorous	98	8166	303	-87	410	1.92E+11
S_153	sourdough_starter	Starter	Keep	577	41.77	-73.1	0	0	0	1	Harwinton	CT	United States	0.5	Individual	Refrigerator	2	1	1	0	0	0	0	0	15	0	1	0	0	0	0	0	1	1	Glass	NonPorous	84	8991	271	-102	1247	4.26E+11
S_154	sourdough_starter	Starter	Keep	78	32.11	-110.79	0	0	0	1	Tucson	AZ	United States	1.333333333	Individual	Refrigerator	4	0	1	0	0	1	0	0	5	0	1	0	0	0	0	0	0	0	Glass	NonPorous	192	6880	364	24	348	74071597056
S_155	sourdough_starter	Starter	Keep	190	49.34	-123.14	0	0	0	1	West Vancouver	British Columbia	Canada	2	Individual	Fridgeandroomtemp	6	1	0	0	0	0	0	0	7	1	0	0	0	0	0	0	0	1	Glass	NonPorous	69	5676	209	-40	1400	3.64E+11
S_156	sourdough_starter	Starter	Keep	202	49.34	-123.14	0	0	0	1	West Vancouver	British Columbia	Canada	12	Company/Business	Fridgeandroomtemp	6	1	0	0	0	0	0	0	7	1	0	0	0	0	0	0	0	1	Glass	NonPorous	69	5676	209	-40	1400	3.64E+11
S_157	sourdough_starter	Starter	Keep	272	45.53	-122.98	1	0	0	1	Hillsboro	OR	United States	6	Individual	Refrigerator	6	1	0	0	0	0	0	0	3.5	1	0	0	0	0	0	0	0	1	Glass	NonPorous	109	5301	264	2	1105	4.20E+11
S_158	sourdough_starter	Starter	Keep	562	47.73	-122.62	0	0	0	1	Poulsbo 	WA	United States	35	Individual	Refrigerator	2	0	1	0	0	0	0	0	15	1	0	0	0	0	0	0	0	1	Glass	NonPorous	104	4752	232	9	983	4.43E+11
S_159	sourdough_starter	Starter	Keep	425	37.9	-122.29	0	0	0	1	El Cerrito	CA	United States	0.666666667	Individual	Refrigerator	3	0	1	0	0	0	0	0	10	1	0	0	0	0	0	0	0	0	Ceramic	NonPorous	143	3412	246	50	658	3.25E+11
S_16	sourdough_starter	Starter	Keep	65	37.64	-79.59	1	0	0	0	Natural Bridge	VA	United States	3	Individual	Refrigerator	8	1	0	0	0	0	0	0	3.5	0	0	0	0	0	1	0	1	1	Plastic	NonPorous	122	7821	293	-49	1074	4.88E+11
S_160	sourdough_starter	Starter	Keep	524	37.71	-122.17	0	0	0	1	San Leandro	CA	United States	6	Individual	Refrigerator	3	0	1	0	0	0	0	0	10	0	1	0	0	0	0	0	0	1	Glass	NonPorous	145	3078	237	57	551	4.22E+11
S_161	sourdough_starter	Starter	Keep	526	37.71	-122.17	0	0	1	0	San Leandro	CA	United States	0.5	Individual	Refrigerator	3	0	1	0	0	0	0	0	10	0	1	0	0	0	0	0	0	1	Glass	NonPorous	145	3078	237	57	551	4.22E+11
S_162	sourdough_starter	Starter	Keep	527	37.71	-122.17	1	0	0	0	San Leandro	CA	United States	100	NA	Refrigerator	2	0	1	0	0	0	0	0	15	0	1	0	0	0	0	0	0	1	Glass	NonPorous	145	3078	237	57	551	4.22E+11
S_163	sourdough_starter	Starter	Keep	587	45.69	-122.63	NA	NA	NA	NA	Vancouver	WA	United States	80	Individual	Refrigerator	2	0	1	0	0	1	0	0	20	0	1	0	0	0	0	0	1	0	Glass	NonPorous	109	5163	260	2	1299	3.61E+11
S_164	sourdough_starter	Starter	Keep	530	33.92	-83.41	0	0	0	1	Athens	GA	United States	4	Company/Business	Refrigerator	1	0	1	0	0	0	0	0	10	1	0	0	0	0	0	0	0	1	Glass	NonPorous	163	7227	323	-2	1256	5.06E+11
S_165	sourdough_starter	Starter	Keep	207	49.34	-123.14	0	0	0	1	West Vancouver	British Columbia	Canada	1	Company/Business	Fridgeandroomtemp	6	1	0	0	0	0	0	0	7	1	0	0	0	0	0	0	0	1	Glass	NonPorous	69	5676	209	-40	1400	3.64E+11
S_166	sourdough_starter	Starter	Keep	569	43.24	-88.01	NA	NA	NA	NA	Mequon	WI	United States	23.9	Company/Business	Refrigerator	4	0	0	0	0	0	0	0	7	0	0	0	0	0	1	0	1	1	Ceramic	NonPorous	76	10100	273	-125	801	3.01E+11
S_167	sourdough_starter	Starter	Keep	450	37.41	-77.69	NA	NA	NA	NA	Midlothian	VI	United States	30	Company/Business	Refrigerator	1	0	1	0	0	0	0	0	60.83333333	1	0	0	0	0	0	0	1	0	Ceramic	NonPorous	136	7981	311	-40	1095	4.46E+11
S_168	sourdough_starter	Starter	Keep	257	44.96	-93.23	0	0	0	1	Minneapolis	MN	United States	1.166666667	Individual	Refrigerator	4	0	1	0	0	0	0	0	10	1	0	0	0	0	0	0	0	0	Ceramic	NonPorous	71	11510	286	-160	738	2.82E+11
S_169	sourdough_starter	Starter	Keep	516	41.48	-81.74	0	1	0	0	Cleveland	OH	United States	100	NA	Refrigerator	4	0	1	0	0	0	0	0	7	0	1	0	0	0	0	0	1	0	Glass	NonPorous	98	9088	282	-78	942	3.07E+11
S_17	sourdough_starter	Starter	Keep	82	42.11	-87.78	0	0	0	1	Northfield	IL	United States	20	Company/Business	Refrigerator	4	0	1	0	0	0	0	0	7	0	1	0	0	0	0	0	1	0	Glass	NonPorous	94	9789	281	-96	903	3.14E+11
S_170	sourdough_starter	Starter	Keep	515	41.48	-81.74	0	1	0	0	Cleveland	OH	United States	26	Individual	Refrigerator	4	0	1	0	0	0	0	0	7	0	1	0	0	0	0	0	1	0	Glass	NonPorous	98	9088	282	-78	942	3.07E+11
S_171	sourdough_starter	Starter	Keep	511	44.44	-124.08	0	0	0	1	Waldport	OR	United States	100	Company/Business	Refrigerator	6	0	1	1	0	0	0	0	5	0	1	0	0	0	0	0	0	0	Ceramic	NonPorous	107	3301	206	27	2159	5.78E+11
S_172	sourdough_starter	Starter	Keep	180	37.89	-122.3	0	1	1	0	Albany	CA	United States	3	Individual	Roomtemp	10	1	1	0	0	0	0	0	2.8	1	0	0	0	0	0	0	0	0	Glass	NonPorous	143	3412	246	50	658	3.25E+11
S_173	sourdough_starter	Starter	Keep	603	47.14	-122.82	0	0	1	1	Olympia	WA	United States	4	Individual	Refrigerator	5	0	1	0	0	0	0	0	10	0	0	0	0	0	1	0	0	1	Glass	NonPorous	104	4944	248	2	1161	4.48E+11
S_174	sourdough_starter	Starter	Keep	548	38.28	-122.29	0	0	0	1	Napa	CA	United States	0.916666667	Individual	Refrigerator	4	0	1	0	0	0	0	0	7	0	1	0	0	0	0	0	1	1	Glass	NonPorous	147	4529	290	32	698	5.55E+11
S_175	sourdough_starter	Starter	Keep	108	41.3	-105.57	0	0	0	1	Laramie	WY	United States	20	Individual	Refrigerator	2	1	1	0	0	0	0	0	20	0	0	0	0	0	0	1	0	1	Glass	NonPorous	48	8124	262	-120	344	1.12E+11
S_176	sourdough_starter	Starter	Keep	611	40.89	-81.52	1	0	0	0	Massillon	OH	United States	0.666666667	Individual	Refrigerator	4	1	0	0	0	0	0	0	7	0	1	0	0	0	0	0	0	1	Glass	NonPorous	97	9006	282	-81	945	3.20E+11
S_177	sourdough_starter	Starter	Keep	575	47.68	-122.1	0	0	0	1	Redmond	WA	United States	0.416666667	Individual	Fridgeandroomtemp	7	0	1	0	0	0	0	0	0	0	0	1	0	0	0	0	0	1	Plastic	NonPorous	103	4784	234	8	1191	3.99E+11
S_179	sourdough_starter	Starter	Keep	348	27.99	-82.69	1	0	0	0	Safety Harbor	FL	United States	1	Individual	Refrigerator	12	0	0	0	0	0	0	0	2.8	1	0	0	0	0	0	0	0	1	Plastic	NonPorous	224	4630	325	103	1248	64459587584
S_18	sourdough_starter	Starter	Keep	216	30.33	-91.12	0	0	0	1	Baton Rouge	LA	United States	2	Individual	Refrigerator	1	0	0	0	0	0	0	1	10	0	0	1	0	0	0	0	0	0	Plastic	NonPorous	195	6221	328	43	1533	5.51E+11
S_180	sourdough_starter	Starter	Keep	652	44.91	-93.74	1	0	0	1	St. Bonifacius	MN	United States	3	Individual	Refrigerator	10	0	1	0	0	0	0	0	7	0	1	0	0	0	0	0	0	1	Glass	NonPorous	66	11643	287	-173	751	3.47E+11
S_181	sourdough_starter	Starter	Keep	529	48.72	-122.5	0	0	0	1	Bellingham	WA	United States	2	Individual	Refrigerator	8	0	1	0	0	0	0	0	3.5	1	0	0	0	0	0	0	0	0	Glass	NonPorous	93	4719	218	-5	1116	4.40E+11
S_182	sourdough_starter	Starter	Keep	484	39.26	-94.9	0	0	1	1	Lansing	KS	United States	0.333333333	Individual	Refrigerator	8	0	1	0	0	1	0	0	7	0	1	0	0	0	0	0	0	0	Glass	NonPorous	127	9626	322	-73	964	3.75E+11
S_183	sourdough_starter	Starter	Keep	203	43.06	-89.46	0	0	1	1	Madison	WI	United States	3	Individual	Refrigerator	6	1	0	0	0	0	0	0	6	1	0	0	0	0	0	0	0	0	Glass	NonPorous	77	10538	283	-136	805	3.36E+11
S_184	sourdough_starter	Starter	Keep	509	64.83	-147.94	0	0	0	1	Fairbanks	AK	United States	0.25	Individual	Refrigerator	4	0	1	0	0	0	0	0	10	1	0	0	0	0	0	0	1	1	Glass	NonPorous	-28	14189	224	-272	312	95449186304
S_185	sourdough_starter	Starter	Keep	453	40.42	-104.7	0	0	1	1	Greeley	CO	United States	10	Individual	Refrigerator	12	1	0	0	0	0	0	0	1	0	1	0	0	0	0	0	0	0	Glass	NonPorous	95	8882	315	-107	351	2.42E+11
S_186	sourdough_starter	Starter	Keep	377	38.96	-94.46	0	0	0	1	Kansas City	MO	United States	3	Individual	Refrigerator	8	0	1	0	0	0	0	0	3.75	1	0	0	0	0	0	0	0	0	Plastic	NonPorous	123	9628	315	-79	978	3.94E+11
S_187	sourdough_starter	Starter	Keep	599	41.86	-87.66	0	0	0	1	Chicago	IL	United States	3	Individual	Fridgeandroomtemp	12	0	0	0	1	0	0	0	2.8	0	1	0	0	0	0	0	0	0	Glass	NonPorous	99	9813	286	-91	915	43840745472
S_188	sourdough_starter	Starter	Keep	646	41.86	-87.66	1	0	0	0	Chicago	IL	United States	0.083333333	Individual	Roomtemp	12	0	1	0	1	0	0	0	1.75	0	1	0	0	0	0	0	0	0	Glass	NonPorous	99	9813	286	-91	915	43840745472
S_189	sourdough_starter	Starter	Keep	63	34.29	-118.73	0	0	0	1	Simi Valley	CA	United States	5	Individual	Refrigerator	3	0	1	0	0	0	0	0	10	1	0	0	0	0	0	0	1	0	Glass	NonPorous	160	4226	298	44	491	2.94E+11
S_19	sourdough_starter	Starter	Keep	37	39.94	-104.94	0	0	1	1	Thornton	CO	United States	1	Individual	Roomtemp	2	0	1	0	0	1	0	0	60.83333333	1	0	0	0	0	0	0	0	1	Glass	Porous	101	8472	310	-89	388	1.53E+11
S_190	sourdough_starter	Starter	Keep	523	35.15	-89.79	0	0	0	1	Cordova	TN	United States	0.020833333	Individual	Roomtemp	2	0	1	0	0	0	0	0	1	0	1	0	0	0	0	0	0	0	Glass	Porous	159	8077	326	-14	1319	4.14E+11
S_191	sourdough_starter	Starter	Keep	400	35.49	-97.55	1	0	0	0	Okalhoma City	OK	United States	1	Individual	Refrigerator	6	0	1	0	0	0	1	0	4.666666667	1	0	0	0	0	0	0	1	0	Plastic	NonPorous	157	8716	342	-32	849	2.95E+11
S_192	sourdough_starter	Starter	Keep	441	36.98	-121.89	0	1	0	0	Aptos	CA	United States	6	Individual	Refrigerator	3	0	1	0	0	0	0	0	10.5	0	1	0	0	0	0	0	0	0	Glass	NonPorous	139	3050	245	38	656	5.23E+11
S_193	sourdough_starter	Starter	Keep	608	37.88	-122.29	1	0	1	1	Berkeley	CA	United States	1	Individual	Belowroomtemp	12	1	1	0	0	0	0	0	7	0	1	0	0	0	0	0	0	0	Glass	NonPorous	143	3412	246	50	658	3.25E+11
S_194	sourdough_starter	Starter	Keep	333	33.77	-118.16	1	0	0	1	Long Beach	CA	United States	0.333333333	Company/Business	Fridgeandroomtemp	8	1	0	0	0	0	0	0	2.8	0	1	0	0	0	0	0	0	1	Glass	NonPorous	174	3313	278	71	289	1.37E+11
S_195	sourdough_starter	Starter	Keep	535	29.78	-95.4	0	1	0	0	Houston	TX	United States	10	Individual	Refrigerator	12	0	1	0	0	0	0	0	2.8	0	1	0	0	0	0	0	0	0	Glass	NonPorous	204	6159	333	62	1147	4.03E+11
S_196	sourdough_starter	Starter	Keep	561	39.17	-86.54	0	0	0	1	Bloomington	IN	United States	10	Individual	Refrigerator	2	0	1	0	0	0	0	0	15	0	0	1	0	0	0	0	0	1	Glass	NonPorous	115	9110	299	-73	1096	4.22E+11
S_198	sourdough_starter	Starter	Keep	482	43.74	-79.4	0	0	1	1	Toronto	Ontario	Canada	3	Individual	Refrigerator	1	1	1	0	0	0	0	0	75	1	0	0	0	0	0	0	1	0	Glass	NonPorous	78	9560	266	-97	789	39548538880
S_199	sourdough_starter	Starter	Keep	454	35.64	-78.87	0	0	1	1	Holly Springs	NC	United States	2	Individual	Refrigerator	4	0	0	0	0	0	0	0	7	1	0	0	0	0	0	0	0	0	Glass	NonPorous	154	7505	315	-15	1163	4.92E+11
S_2	sourdough_starter	Starter	Keep	191	39.74	-105.05	0	0	1	1	Denver	CO	United States	1	Individual	Refrigerator	5	1	0	0	0	0	0	0	1.4	1	0	0	0	0	0	0	0	1	Glass	NonPorous	98	8166	303	-87	410	1.92E+11
S_20	sourdough_starter	Starter	Keep	243	38.46	-122.62	0	0	0	1	Santa Rosa	CA	United States	11	Individual	Refrigerator	12	1	0	0	0	0	0	0	3.5	0	0	0	0	0	1	0	0	0	Plastic	NonPorous	139	4570	296	25	999	5.53E+11
S_200	sourdough_starter	Starter	Keep	122	37.02	-80.35	0	0	0	1	Pilot	VA	United States	16	Individual	Refrigerator	4	0	1	0	0	0	0	0	7	0	0	0	0	0	0	1	0	1	Glass	NonPorous	112	7625	283	-58	1034	4.86E+11
S_202	sourdough_starter	Starter	Keep	287	42.37	-71.1	0	0	1	1	Cambridge	MA	United States	0.5	Individual	Refrigerator	4	1	0	0	0	0	0	0	7	1	0	0	0	0	0	1	1	0	Glass	NonPorous	96	8769	281	-81	1121	3.62E+11
S_204	sourdough_starter	Starter	Keep	568	47.65	-122.4	0	0	1	1	Seattle	WA	United States	NA	Company/Business	Refrigerator	2	1	1	0	0	0	0	0	15	0	1	0	0	0	0	0	1	0	Ceramic	NonPorous	108	4857	236	13	982	2.75E+11
S_205	sourdough_starter	Starter	Keep	132	47.67	-122.31	0	0	0	1	Seattle	WA	United States	0.25	Individual	Refrigerator	3	0	1	0	0	0	0	0	15	0	1	0	0	0	0	0	0	0	Plastic	NonPorous	106	4722	231	14	988	2.75E+11
S_206	sourdough_starter	Starter	Keep	115	-37.57	175.92	1	0	1	1	Katikati	Bay of Plenty	New Zealand	2.333333333	Individual	Refrigerator	1	1	0	0	0	0	0	0	10	0	0	1	0	0	0	0	0	0	Glass	NonPorous	139	3361	237	45	1914	6.69E+11
S_207	sourdough_starter	Starter	Keep	483	44.07	-121.33	1	0	1	1	Bend	OR	United States	1	Individual	Refrigerator	2	1	1	0	0	0	1	0	15	1	0	0	0	0	0	0	1	0	Plastic	NonPorous	78	6034	280	-53	276	2.15E+11
S_208	sourdough_starter	Starter	Keep	395	38.88	-96.56	0	0	0	1	Alta Vista	KS	United States	20	Individual	Roomtemp	3	0	1	0	0	0	1	0	4.666666667	1	0	0	0	0	0	0	1	0	Ceramic	NonPorous	119	9916	321	-90	874	2.92E+11
S_209	sourdough_starter	Starter	Keep	662	37.9	-122.08	0	0	0	1	Walnut Creek	CA	United States	12	Company/Business	Refrigerator	4	0	1	0	0	0	0	0	7	1	0	1	0	0	0	0	1	0	Plastic	NonPorous	146	4001	265	41	549	4.25E+11
S_21	sourdough_starter	Starter	Keep	493	34.08	-118.27	0	0	0	1	Los Angeles	CA	United States	5	Individual	Refrigerator	1	1	1	0	0	0	0	0	20	1	0	0	0	0	0	0	0	1	Glass	NonPorous	181	3600	298	74	402	2.51E+11
S_211	sourdough_starter	Starter	Keep	501	37.22	-80.39	0	0	0	1	Blacksburg	VA	United States	90	Individual	Refrigerator	4	0	1	0	0	0	0	0	7	1	0	0	0	0	0	0	0	0	Glass	NonPorous	111	7691	284	-59	991	4.86E+11
S_212	sourdough_starter	Starter	Keep	720	35.31	-120.86	0	0	1	0	Los Osos	CA	United States	2	Individual	Refrigerator	3	1	0	0	0	0	0	0	4.666666667	1	0	0	0	0	0	0	0	0	Glass	NonPorous	135	2098	227	50	475	4.22E+11
S_213	sourdough_starter	Starter	Keep	146	35.74	-91.66	0	0	1	1	Batesville	AR	United States	0.916666667	Individual	Refrigerator	4	1	1	0	0	0	0	0	5	0	1	0	0	0	0	0	0	0	Glass	NonPorous	151	8525	338	-40	1216	6.00E+11
S_214	sourdough_starter	Starter	Keep	392	33.41	-111.49	0	0	0	1	Apache Junction	AZ	United States	NA	Company/Business	Refrigerator	2	0	1	0	0	0	0	0	10	1	0	0	0	0	0	0	1	1	Ceramic	NonPorous	197	7395	382	32	425	1.08E+11
S_215	sourdough_starter	Starter	Keep	619	39.08	-108.62	0	0	0	1	Grand Junction	CO	United States	11	Individual	Refrigerator	4	0	1	0	0	0	0	0	7	1	0	0	0	0	0	0	0	1	Glass	NonPorous	111	9526	338	-95	241	1.43E+11
S_216	sourdough_starter	Starter	Keep	391	43.86	-70.15	0	0	1	1	Freeport	ME	United States	0.5	Individual	Roomtemp	12	1	1	0	0	0	0	0	0.5	1	0	0	0	0	0	0	1	1	Glass	Porous	75	9311	262	-116	1151	32404924416
S_217	sourdough_starter	Starter	Keep	323	47.75	-116.74	0	1	1	0	Coeur D Alene	ID	United States	1.166666667	Individual	Refrigerator	4	0	1	0	0	0	0	0	7	1	0	0	0	0	0	0	1	0	Plastic	NonPorous	78	7431	279	-62	696	3.69E+11
S_218	sourdough_starter	Starter	Keep	541	-36.9	174.64	1	0	0	0	Auckland	NA	New Zealand	4	Individual	Refrigerator	4	0	1	0	0	0	0	0	7	1	0	0	0	0	0	0	0	0	Plastic	NonPorous	145	3109	235	62	1290	6.26E+11
S_219	sourdough_starter	Starter	Keep	711	40.69	-75.93	0	0	0	0	New Ringgold	PA	United States	8.25	Individual	Refrigerator	4	0	1	0	0	1	0	0	10	0	0	0	0	0	1	0	0	1	Ceramic	NonPorous	91	8811	277	-87	1208	4.07E+11
S_22	sourdough_starter	Starter	Keep	144	43.05	-89.45	0	0	0	0	Madison	WI	United States	2	Individual	Refrigerator	12	0	0	0	0	0	0	0	7	0	1	0	0	0	0	0	1	0	Glass	NonPorous	77	10538	283	-136	805	3.36E+11
S_220	sourdough_starter	Starter	Keep	676	44.46	-93.17	0	0	0	1	Northfield	MN	United States	3	Individual	Refrigerator	2	0	1	0	0	0	0	0	15	1	0	0	0	0	0	0	0	0	Plastic	NonPorous	66	11674	285	-173	774	3.27E+11
S_221	sourdough_starter	Starter	Keep	672	46.82	-92.06	0	0	0	1	Duluth	MN	United States	1.75	Individual	Refrigerator	4	1	1	0	0	0	0	0	7	1	0	0	0	0	0	0	0	0	Glass	NonPorous	43	10592	249	-176	720	27297249280
S_222	sourdough_starter	Starter	Keep	677	33.67	-117.81	1	0	0	0	Irvine	CA	United States	0.166666667	Individual	Roomtemp	12	1	0	0	0	0	0	0	0.5	0	0	1	0	0	0	0	0	1	Plastic	NonPorous	171	3785	297	59	348	2.07E+11
S_223	sourdough_starter	Starter	Keep	121	41.04	-73.67	0	0	0	1	Greenwich	CT	United States	6	Individual	Refrigerator	12	0	1	0	0	0	0	0	1.4	1	0	0	0	0	0	0	0	0	Plastic	NonPorous	105	8758	285	-66	1224	34779996160
S_224	sourdough_starter	Starter	Keep	245	33.81	-118.11	0	0	0	1	Long Beach	CA	United States	16	Individual	Refrigerator	4	1	1	0	0	1	1	0	7	1	0	0	0	0	0	0	0	0	Ceramic	NonPorous	174	3313	278	71	289	1.37E+11
S_225	sourdough_starter	Starter	Keep	654	39.08	-104.87	NA	NA	NA	NA	Monument	CO	United States	2	Individual	Refrigerator	2	0	1	0	0	1	0	0	15	0	0	0	0	0	1	0	1	1	Glass	NonPorous	48	7677	253	-135	485	2.35E+11
S_226	sourdough_starter	Starter	Keep	666	39.12	-92.37	0	0	1	0	Columbia	MO	United States	2	Individual	Fridgeandroomtemp	12	0	1	0	0	0	0	0	1.75	1	0	0	0	0	0	0	1	0	Glass	Porous	122	9677	316	-80	987	4.43E+11
S_227	sourdough_starter	Starter	Keep	707	36.82	-107.99	1	0	0	1	Aztec	NM	United States	4	Individual	Refrigerator	2	1	1	0	0	0	0	0	15	1	0	0	0	0	0	0	1	0	Plastic	NonPorous	106	8829	327	-92	272	1.10E+11
S_228	sourdough_starter	Starter	Keep	340	51.58	-0.2	1	0	0	0	London	London	United Kingdom	3	Individual	Refrigerator	2	1	0	0	0	0	0	0	7	1	0	0	0	0	0	0	0	0	Plastic	NonPorous	103	4827	223	9	645	2.38E+11
S_23	sourdough_starter	Starter	Keep	369	39.79	-105.04	0	0	1	0	Denver	CO	United States	3	Individual	Refrigerator	2	0	1	0	0	0	0	0	12	1	0	0	0	0	0	0	0	0	Plastic	NonPorous	98	8166	303	-87	410	1.64E+11
S_230	sourdough_starter	Starter	Keep	361	37.97	-84.57	1	0	0	1	Nicholasville	KY	United States	10	Individual	Refrigerator	6	0	1	0	0	0	0	0	4	0	1	0	0	0	0	0	0	1	Plastic	NonPorous	128	8460	303	-50	1181	5.38E+11
S_231	sourdough_starter	Starter	Keep	584	44.79	-122.96	0	0	1	1	Turner	OR	United States	41	Individual	Refrigerator	2	0	1	0	0	0	0	0	15	1	0	0	0	0	1	0	1	0	Glass	NonPorous	112	5143	272	4	1177	3.60E+11
S_232	sourdough_starter	Starter	Keep	684	30.63	-96.35	0	0	1	1	Bryan	TX	United States	5	Company/Business	Refrigerator	2	0	1	0	0	0	0	0	30	1	0	0	0	0	0	0	0	0	Glass	NonPorous	201	6802	356	45	994	4.34E+11
S_233	sourdough_starter	Starter	Keep	659	33.48	-111.66	0	0	0	1	Mesa	AZ	United States	3	Individual	Fridgeandroomtemp	4	1	0	0	0	0	0	0	7	0	1	0	0	0	0	0	0	0	Glass	NonPorous	208	7519	395	36	310	82112471040
S_234	sourdough_starter	Starter	Keep	544	32.81	-117.01	0	0	0	1	San Diego	CA	United States	50	Individual	Refrigerator	4	0	1	0	0	0	0	0	4.666666667	1	0	0	0	0	0	0	1	0	Glass	NonPorous	173	3259	274	74	283	1.98E+11
S_235	sourdough_starter	Starter	Keep	405	39.95	-74.18	0	1	0	0	Toms River	NJ	United States	0.833333333	Individual	Refrigerator	4	1	0	0	0	0	0	0	3.5	0	0	1	0	0	0	0	0	1	Plastic	NonPorous	116	8352	291	-54	1154	48141250560
S_236	sourdough_starter	Starter	Keep	668	47.66	-122.33	0	0	0	1	Seattle	WA	United States	25	Individual	Refrigerator	4	0	0	1	0	0	0	0	7	0	1	0	0	0	0	0	0	0	Plastic	NonPorous	110	4883	241	15	998	2.75E+11
S_237	sourdough_starter	Starter	Keep	423	47.91	-122.1	0	0	1	0	Snohomish	WA	United States	4	Individual	Refrigerator	4	0	1	0	0	0	0	0	7	0	1	0	0	0	0	0	0	0	Glass	NonPorous	103	4779	234	7	1143	4.26E+11
S_238	sourdough_starter	Starter	Keep	117	36	-78.92	0	0	0	1	Durham	NC	United States	2	Company/Business	Refrigerator	4	1	1	0	0	0	0	0	2.333333333	1	1	0	0	0	0	0	1	0	Glass	NonPorous	150	7616	317	-21	1141	4.32E+11
S_239	sourdough_starter	Starter	Keep	660	33.97	-118.4	0	0	1	1	Los Angeles	CA	United States	3.5	Individual	Roomtemp	12	1	0	0	0	0	0	0	0.5	0	0	1	0	0	0	0	0	0	Ceramic	NonPorous	178	2961	273	88	334	1.17E+11
S_24	sourdough_starter	Starter	Keep	271	42.92	-85.9	0	0	0	1	Hudsonville	MI	United States	20	Individual	Refrigerator	8	0	1	0	0	1	0	0	3.5	0	0	0	0	0	1	0	0	0	Plastic	NonPorous	86	9305	275	-89	890	3.64E+11
S_240	sourdough_starter	Starter	Keep	457	44.32	-89.29	1	0	0	0	Almond	WI	United States	12	Individual	Refrigerator	6	1	1	0	0	0	0	0	12	0	1	0	0	0	1	0	0	1	Glass	NonPorous	65	10858	278	-155	813	3.16E+11
S_241	sourdough_starter	Starter	Keep	696	36.98	-121.92	0	1	0	0	Aptos	CA	United States	0.666666667	Individual	Roomtemp	12	0	1	0	0	0	0	0	0.7	0	1	0	0	0	0	0	1	1	Acrylic	NonPorous	139	3050	245	38	656	5.23E+11
S_242	sourdough_starter	Starter	Keep	388	41.8	-87.58	1	1	0	0	Chicago	IL	United States	0.020833333	Individual	Roomtemp	12	1	1	0	0	0	0	0	1.4	1	0	0	0	0	0	0	0	0	Glass	NonPorous	101	9884	290	-92	931	43840745472
S_243	sourdough_starter	Starter	Keep	451	35.74	-84.63	1	0	1	1	Ten Mile	TN	United States	3	Individual	Refrigerator	4	1	1	0	0	0	1	0	7	0	1	0	0	0	0	0	0	1	Plastic	NonPorous	138	7852	308	-39	1408	4.91E+11
S_244	sourdough_starter	Starter	Keep	719	32.74	-117.14	1	0	0	1	San Diego	CA	United States	5	Individual	Refrigerator	2	0	0	1	0	0	0	0	15	1	0	0	0	0	0	0	1	0	Plastic	NonPorous	173	3259	274	74	283	1.67E+11
S_245	sourdough_starter	Starter	Keep	157	33.08	-117.24	1	0	1	1	Carlsbad	CA	United States	7	Individual	Refrigerator	4	0	1	0	0	0	0	0	3.5	0	0	1	0	0	0	0	1	1	Glass	NonPorous	168	3395	271	65	310	2.97E+11
S_246	sourdough_starter	Starter	Keep	729	37.23	-121.95	0	1	0	0	Los Gatos	CA	United States	43	Individual	Refrigerator	2	0	1	0	0	0	0	0	15	1	0	0	0	0	0	0	0	0	Plastic	NonPorous	148	4123	284	35	569	5.84E+11
S_247	sourdough_starter	Starter	Keep	36	39.52	-119.79	1	0	1	0	Reno	NV	United States	5	Individual	Refrigerator	6	1	1	0	0	1	0	0	2.333333333	0	1	0	0	0	0	0	0	1	Plastic	NonPorous	98	7322	317	-70	208	1.24E+11
S_248	sourdough_starter	Starter	Keep	702	45.49	-122.59	NA	NA	NA	NA	Portland	OR	United States	100	NA	Refrigerator	6	0	1	0	0	1	0	0	3.5	1	0	0	0	0	0	0	1	0	Glass	NonPorous	116	5317	268	11	1205	3.93E+11
S_249	sourdough_starter	Starter	Keep	725	45.51	-122.58	1	0	1	0	Portland	OR	United States	0.166666667	Individual	Refrigerator	6	1	1	0	0	0	0	0	3.5	1	0	0	0	0	0	0	1	0	Glass	NonPorous	115	5336	264	8	1116	3.61E+11
S_250	sourdough_starter	Starter	Keep	742	35.79	-78.63	NA	NA	NA	NA	Raleigh	NC	United States	200	Individual	Refrigerator	1	0	1	0	0	0	0	0	30.41666667	0	1	0	0	0	0	0	0	0	Plastic	NonPorous	154	7527	318	-15	1146	4.26E+11
S_251	sourdough_starter	Starter	Keep	692	34.11	-84.3	1	0	0	0	Alpharetta	GA	United States	0.833333333	Individual	Refrigerator	6	0	1	0	0	0	0	0	5	0	1	0	0	0	0	0	1	1	Plastic	NonPorous	150	7271	308	-15	1403	5.44E+11
S_252	sourdough_starter	Starter	Keep	184	39.67	-104.94	0	0	0	1	Denver	CO	United States	0.833333333	Individual	Refrigerator	2	0	1	0	0	0	0	0	3.5	0	1	0	0	0	0	0	0	0	Plastic	NonPorous	101	8377	308	-86	404	1.67E+11
S_253	sourdough_starter	Starter	Keep	114	39.91	-86.31	0	0	1	1	Indianapolis	IN	United States	10	Individual	Refrigerator	3	0	1	0	0	0	0	0	30	0	1	0	0	0	0	0	0	0	Plastic	NonPorous	107	9449	296	-84	1017	3.25E+11
S_254	sourdough_starter	Starter	Keep	640	40.12	-75.14	0	0	0	1	Abington	PA	United States	NA	Individual	Refrigerator	4	1	0	0	0	0	0	0	7	0	1	0	0	0	0	0	0	1	Glass	NonPorous	118	8686	298	-54	1143	4.27E+11
S_256	sourdough_starter	Starter	Keep	462	37.34	-122	0	0	1	0	Santa Clara	CA	United States	1	Individual	Roomtemp	12	1	1	0	0	0	0	0	1.4	1	0	0	0	0	0	0	0	0	Glass	NonPorous	152	4035	276	44	391	2.99E+11
S_257	sourdough_starter	Starter	Keep	183	-37.63	145.18	1	0	0	1	Hurstbridge	Victoria	Australia	10	Individual	Refrigerator	6	1	1	0	0	0	0	0	7	1	0	0	0	0	0	0	1	0	Glass	NonPorous	137	4098	265	40	893	5.60E+11
S_258	sourdough_starter	Starter	Keep	706	35.88	-106.31	0	0	1	1	Los Alamos	NM	United States	1	Individual	Refrigerator	4	1	0	0	0	0	0	0	7	1	0	0	0	0	0	0	0	0	Ceramic	NonPorous	89	7768	284	-90	397	3.45E+11
S_259	sourdough_starter	Starter	Keep	580	40.5	-111.86	0	0	0	1	Draper	UT	United States	NA	Individual	Refrigerator	2	1	1	0	0	1	0	0	15	0	0	1	0	0	0	0	0	1	Ceramic	NonPorous	93	8830	318	-86	420	1.91E+11
S_26	sourdough_starter	Starter	Keep	412	33.67	-111.92	0	0	0	1	Scottsdale	AZ	United States	3	Individual	Refrigerator	3	0	1	0	0	0	0	0	10	1	0	0	0	0	0	0	0	0	Glass	NonPorous	199	7339	390	31	356	66668249088
S_260	sourdough_starter	Starter	Keep	298	44.6	-123.3	1	0	0	0	Corvallis	OR	United States	1.333333333	Individual	Refrigerator	2	0	0	0	1	0	0	0	15	1	0	0	0	0	0	0	1	1	Glass	NonPorous	110	5140	272	7	1160	5.08E+11
S_261	sourdough_starter	Starter	Keep	730	42.32	-72.63	1	0	0	1	Northampton	MA	United States	20	Individual	Roomtemp	12	1	1	0	0	0	1	0	0.2	1	1	0	0	0	0	0	0	0	Plastic	NonPorous	87	9280	284	-105	1114	3.92E+11
S_262	sourdough_starter	Starter	Keep	128	33.78	-84.37	0	0	1	1	Atlanta	GA	United States	0.583333333	Individual	Fridgeandroomtemp	12	1	1	1	0	0	0	0	0.5	0	1	0	0	0	0	0	0	1	Glass	NonPorous	159	7327	316	-4	1301	4.83E+11
S_263	sourdough_starter	Starter	Keep	690	40.57	-109.92	0	0	0	1	Whiterocks	UT	United States	13	Individual	Refrigerator	5	1	1	0	0	0	0	0	3.5	0	0	0	1	1	0	1	1	1	Plastic	NonPorous	40	8534	251	-137	360	1.91E+11
S_264	sourdough_starter	Starter	Keep	246	42.59	-70.77	0	0	0	1	Manchester	MA	United States	5	Company/Business	Refrigerator	2	0	1	0	0	0	0	0	15	0	1	0	0	0	0	0	0	0	Plastic	NonPorous	93	8717	274	-82	1178	34028417024
S_265	sourdough_starter	Starter	Keep	637	40.62	-111.51	0	0	0	1	Park City	UT	United States	40	Company/Business	Aboveroomtemp	12	1	1	0	0	0	1	0	0.5	0	1	0	0	0	0	0	0	0	Plastic	NonPorous	29	7713	229	-126	866	2.75E+11
S_266	sourdough_starter	Starter	Keep	165	39.72	-105.21	NA	NA	NA	NA	Golden	CO	United States	1	Individual	Refrigerator	3	0	1	0	0	0	0	0	15	0	1	0	0	0	0	0	0	1	Glass	NonPorous	71	7597	276	-111	448	1.92E+11
S_267	sourdough_starter	Starter	Keep	563	57.05	-135.34	0	0	0	1	Sitka	AK	United States	35	Individual	Refrigerator	1	0	0	0	0	0	0	1	45.625	1	0	0	0	0	0	0	0	1	Plastic	NonPorous	53	4592	160	-40	2308	1.41E+11
S_268	sourdough_starter	Starter	Keep	670	-36.61	146.21	1	0	0	0	Upper Lurg	Victoria	Australia	20	NA	Refrigerator	2	1	1	0	0	0	0	0	6	0	0	0	1	0	0	0	0	1	Glass	NonPorous	141	5076	294	25	739	5.01E+11
S_269	sourdough_starter	Starter	Keep	69	47.64	-122.35	0	0	0	1	Seattle	WA	United States	10	Individual	Refrigerator	5	1	0	0	0	0	0	0	5	0	1	0	0	0	0	0	1	0	Ceramic	NonPorous	108	4857	236	13	982	2.75E+11
S_27	sourdough_starter	Starter	Keep	397	31.66	-110.66	0	0	0	1	Sonoita	AZ	United States	2	Individual	Refrigerator	12	0	1	0	0	0	0	0	1.75	0	0	0	0	0	1	0	0	1	Plastic	NonPorous	149	6298	319	-11	489	1.17E+11
S_270	sourdough_starter	Starter	Keep	733	44.85	-93.47	0	0	1	1	Eden Prairie	MN	United States	2	Individual	Refrigerator	2	0	1	0	0	0	0	0	7	1	0	0	0	0	0	0	0	1	Plastic	NonPorous	68	11552	284	-166	747	2.76E+11
S_271	sourdough_starter	Starter	Keep	724	44.72	-81.12	0	1	0	0	Georgian Bluffs	Ontario	Canada	5	Individual	Refrigerator	3	0	1	0	0	0	0	0	7	0	1	0	0	0	0	0	0	0	Plastic	NonPorous	62	9154	240	-110	949	3.45E+11
S_272	sourdough_starter	Starter	Keep	703	59.56	9.27	1	1	0	0	Notodden	Telemark	Norway	0.833333333	Individual	Refrigerator	9	1	1	0	0	0	0	0	2.8	0	0	0	0	0	0	1	0	0	Glass	NonPorous	47	7185	196	-79	761	1.39E+11
S_273	sourdough_starter	Starter	Keep	759	42.99	-72.66	0	0	1	0	Brattleboro	VT	United States	3	Individual	Roomtemp	12	1	1	0	0	0	1	0	0.5	0	1	0	0	0	0	0	0	0	Plastic	NonPorous	70	9546	273	-135	1136	3.86E+11
S_274	sourdough_starter	Starter	Keep	416	49.8	-125.05	0	0	0	1	Merville	British Columbia	Canada	4	Individual	Refrigerator	12	0	0	0	0	0	0	1	2.8	0	0	0	0	0	1	0	1	1	Plastic	NonPorous	89	5233	224	-9	1445	33660993536
S_275	sourdough_starter	Starter	Keep	324	35.98	-78.9	0	0	1	1	Durham	NC	United States	1	Individual	Refrigerator	2	0	0	0	1	0	0	0	15	0	1	0	0	0	0	0	0	1	Glass	NonPorous	150	7616	317	-21	1141	4.32E+11
S_276	sourdough_starter	Starter	Keep	752	41.82	-71.4	0	0	0	1	Providence	RI	United States	30	Individual	Refrigerator	2	0	1	0	0	0	0	0	12	1	0	0	0	0	0	0	0	0	Plastic	NonPorous	97	8593	276	-75	1192	3.31E+11
S_277	sourdough_starter	Starter	Keep	699	51.51	-0.09	1	0	1	1	London	London	United Kingdom	5	Individual	Refrigerator	8	1	1	0	0	0	0	0	3.75	0	1	0	0	0	0	0	0	0	Stainless Steel	NonPorous	108	4918	230	14	622	2.38E+11
S_278	sourdough_starter	Starter	Keep	463	42.91	-78.72	0	1	0	0	Depew	NY	United States	60	NA	Refrigerator	4	0	0	1	0	0	0	0	1.555555556	1	0	0	0	0	0	0	1	1	Plastic	NonPorous	85	9172	269	-87	978	3.12E+11
S_279	sourdough_starter	Starter	Keep	700	39.7	-84.11	1	0	0	0	Kettering	OH	United States	4	Individual	Refrigerator	4	0	1	0	0	1	0	0	7	0	1	0	0	0	0	0	0	0	Glass	NonPorous	113	9248	296	-69	975	3.63E+11
S_28	sourdough_starter	Starter	Keep	134	36.01	-78.9	0	0	0	0	Durham	NC	United States	10	Individual	Roomtemp	12	1	1	0	0	0	0	0	7	1	0	0	0	0	0	0	0	0	Glass and plastic	NonPorous	146	7678	316	-27	1150	4.70E+11
S_281	sourdough_starter	Starter	Keep	40	40.7	-74.57	0	0	1	0	Basking Ridge	NJ	United States	1	Individual	Refrigerator	4	1	1	0	0	0	0	0	7	1	0	0	0	0	0	0	0	0	Plastic	NonPorous	98	8731	285	-83	1258	4.70E+11
S_282	sourdough_starter	Starter	Keep	480	38.6	-90.3	0	0	0	1	Saint louos	MO	United States	5	Individual	Refrigerator	4	0	1	0	0	0	0	0	7	1	0	0	0	0	0	0	0	0	Glass	NonPorous	132	9414	321	-64	964	2.98E+11
S_283	sourdough_starter	Starter	Keep	313	28.21	-82.7	0	0	0	1	New port richey	FL	United States	0.75	Individual	Refrigerator	4	0	1	0	0	0	0	0	7	0	0	0	0	0	0	1	0	0	Plastic	NonPorous	221	4694	329	92	1323	4.95E+11
S_284	sourdough_starter	Starter	Keep	622	47.6	-122.31	1	0	1	0	Seattle	WA	United States	125	Individual	Refrigerator	12	1	0	0	0	0	0	0	3.5	0	0	0	0	0	1	1	0	0	Ceramic	NonPorous	110	4883	241	15	998	2.75E+11
S_286	sourdough_starter	Starter	Keep	715	53.34	-6.29	0	1	0	0	Dublin	Dublin	Ireland	100	Individual	Roomtemp	8	0	1	0	1	0	0	0	3.5	1	0	0	0	0	0	0	0	0	Glass	NonPorous	96	3716	193	23	779	2.85E+11
S_287	sourdough_starter	Starter	Keep	748	44.91	-93.1	1	0	0	1	West Saint Paul	MN	United States	14	Individual	Refrigerator	6	0	1	0	0	0	0	0	15	0	1	0	0	0	0	0	1	0	Plastic	NonPorous	73	11493	288	-157	761	2.82E+11
S_288	sourdough_starter	Starter	Keep	329	45.65	-122.68	0	0	0	1	Vancouver	WA	United States	2.5	Individual	Refrigerator	3	0	1	1	0	1	0	0	7	1	0	0	0	0	0	0	0	0	Ceramic	NonPorous	112	5359	263	5	1076	3.61E+11
S_29	sourdough_starter	Starter	Keep	90	35.82	-78.71	0	0	0	1	Raleigh	NC	United States	4	Individual	Roomtemp	10	0	1	0	0	0	0	0	3	1	0	0	0	0	0	0	1	0	Plastic	NonPorous	152	7546	315	-16	1148	4.26E+11
S_290	sourdough_starter	Starter	Keep	735	47.67	-111.77	0	0	1	0	Power	MT	United States	5	Individual	Refrigerator	12	0	1	0	0	0	0	0	1.75	0	0	0	0	0	1	0	0	0	Plastic	NonPorous	63	8736	274	-128	313	1.88E+11
S_291	sourdough_starter	Starter	Keep	140	42.74	-124.49	0	0	1	0	Port Orford	OR	United States	1	Individual	Refrigerator	3	1	0	0	0	0	0	0	10	0	1	0	0	0	0	0	0	0	Glass	Porous	106	3094	208	25	1896	5.44E+11
S_292	sourdough_starter	Starter	Keep	88	34.68	-118.14	1	0	1	1	Lancaster	CA	United States	0.5	Individual	Roomtemp	12	1	1	0	0	1	0	0	1	0	1	0	0	0	0	0	1	1	Glass	NonPorous	163	7274	364	-11	159	1.28E+11
S_294	sourdough_starter	Starter	Keep	467	47.85	-122.2	0	1	0	1	Bothell	WA	United States	46	Individual	Refrigerator	0	0	1	0	0	0	0	0	60.83333333	1	0	0	0	0	0	0	1	1	Glass	NonPorous	101	4628	223	11	975	4.26E+11
S_296	sourdough_starter	Starter	Keep	694	45.39	-75.75	0	0	0	1	Ottawa	Ontario	Canada	3	Individual	Refrigerator	3	1	1	0	0	1	0	0	15	0	1	0	0	0	0	0	1	0	Glass	NonPorous	58	10965	262	-155	864	2.66E+11
S_299	sourdough_starter	Starter	Keep	794	42.39	-71.17	0	0	1	0	Belmont	MA	United States	5	Individual	Refrigerator	4	0	1	0	0	0	0	0	7	1	0	0	0	0	0	0	0	0	Plastic	NonPorous	92	8886	280	-88	1130	3.62E+11
S_3	sourdough_starter	Starter	Keep	110	36.93	-76.19	1	0	1	0	Norfolk	VA	United States	0.916666667	Company/Business	Refrigerator	4	1	1	0	0	0	0	0	5	0	1	0	0	0	0	0	1	0	Glass	NonPorous	153	7633	306	0	1124	49775726592
S_300	sourdough_starter	Starter	Keep	60	41.1	-73.46	0	0	0	1	Norwalk 	CT	United States	37	Company/Business	Refrigerator	1	0	1	0	0	0	0	0	30	0	1	0	0	0	0	0	1	0	Glass	NonPorous	105	8581	283	-67	1190	34779996160
S_302	sourdough_starter	Starter	Keep	781	47.71	9.27	1	0	0	0	Meersburg	BadenWurttemberg	Germany	6	Individual	Refrigerator	1	0	1	0	0	0	1	0	15	1	0	0	0	0	0	0	1	0	Plastic	Porous	92	6608	238	-26	945	37364834304
S_305	sourdough_starter	Starter	Keep	478	51.48	-0.39	1	0	0	1	Heston 	Middlesex	United Kingdom	0.25	Individual	Refrigerator	8	1	0	0	0	0	0	0	3.5	0	0	0	0	0	0	1	0	0	Plastic	NonPorous	103	5042	229	5	632	2.25E+11
S_306	sourdough_starter	Starter	Keep	766	34.41	-112.6	0	0	1	0	Wilhoit	AZ	United States	0.125	Individual	Roomtemp	12	1	1	0	0	1	0	0	1.5	0	1	0	0	0	0	0	1	1	Ceramic	Porous	131	7046	323	-36	477	1.50E+11
S_307	sourdough_starter	Starter	Keep	695	42.37	-71.1	0	0	1	0	Cambridge	MA	United States	15	Company/Business	Other	12	1	1	0	0	0	0	0	0.5	1	0	0	0	0	0	0	0	0	Plastic	Porous	96	8769	281	-81	1121	3.62E+11
S_308	sourdough_starter	Starter	Keep	192	41.78	-70	NA	NA	NA	NA	Orleans	MA	United States	100	Company/Business	Refrigerator	1	1	0	0	0	0	0	0	30	1	0	0	0	0	0	0	0	1	Glass	NonPorous	95	7575	240	-50	1122	NA
S_309	sourdough_starter	Starter	Keep	315	43.66	-79.46	0	0	0	1	Toronto	Ontario	Canada	0.5	Individual	Refrigerator	4	0	0	0	1	0	0	0	7	1	0	0	0	0	0	0	1	1	Glass	NonPorous	84	9406	269	-87	782	39548538880
S_31	sourdough_starter	Starter	Keep	92	41.61	-93.68	0	0	0	1	Des Moines	IA	United States	23	Individual	Refrigerator	5	0	1	0	0	0	0	0	3.5	0	0	1	0	0	0	0	0	1	Glass	NonPorous	95	10719	301	-123	836	3.25E+11
S_310	sourdough_starter	Starter	Keep	379	44.83	-68.78	0	0	1	1	Bangor	ME	United States	4	Individual	Refrigerator	12	1	0	0	0	0	0	0	2.8	1	0	0	0	0	0	0	0	0	Glass	NonPorous	65	9601	260	-132	1089	3.40E+11
S_311	sourdough_starter	Starter	Keep	796	40.84	-73.94	1	0	0	0	New York	NY	United States	1	Individual	Refrigerator	4	0	1	1	0	0	0	0	7	1	0	0	0	0	0	0	0	0	Glass	NonPorous	115	8779	292	-53	1171	3.27E+11
S_312	sourdough_starter	Starter	Keep	757	43.82	-72.2	1	0	0	1	East Thetford	VT	United States	NA	Company/Business	Refrigerator	4	0	1	0	0	0	0	0	10	0	1	0	0	0	1	1	0	0	Ceramic	NonPorous	61	9738	265	-146	965	3.65E+11
S_313	sourdough_starter	Starter	Keep	797	40.67	-73.99	1	0	1	1	Brooklyn	NY	United States	0.833333333	Individual	Roomtemp	12	1	1	0	0	0	1	0	0.5	0	1	0	0	0	0	0	1	0	Plastic	NonPorous	120	8698	291	-41	1126	46261874688
S_314	sourdough_starter	Starter	Keep	643	46.5	-0.06	0	0	0	1	Menigoute	NA	France	10	Individual	Refrigerator	6	0	1	0	1	0	0	0	4.666666667	0	1	0	0	0	0	0	0	1	Glass	NonPorous	114	5350	245	10	805	3.94E+11
S_315	sourdough_starter	Starter	Keep	795	42.33	-73.64	0	0	1	0	Ghent	NY	United States	NA	Individual	Roomtemp	12	1	1	0	0	0	0	0	1	0	0	0	0	0	1	0	0	1	Plastic	NonPorous	78	9217	273	-114	1076	3.68E+11
S_316	sourdough_starter	Starter	Keep	583	39.2	-76.85	0	0	0	1	Columbia	MD	United States	10	Individual	Refrigerator	4	0	1	0	0	0	0	0	7	1	0	0	0	0	0	0	1	0	Glass	NonPorous	121	8555	303	-54	1094	4.71E+11
S_317	sourdough_starter	Starter	Keep	817	37.23	-121.87	0	1	1	0	San Jose	CA	United States	2	Individual	Roomtemp	12	1	0	0	0	0	0	0	7	1	0	0	0	0	0	0	0	0	Glass	Porous	148	4123	284	35	569	5.84E+11
S_318	sourdough_starter	Starter	Keep	826	41.31	-72.93	0	1	0	0	New Haven	CT	United States	1.166666667	Individual	Refrigerator	4	0	1	1	0	0	0	0	3.5	1	0	0	0	0	0	0	0	0	Plastic	NonPorous	104	8551	278	-64	1130	3.83E+11
S_319	sourdough_starter	Starter	Keep	494	41.98	-87.72	0	0	1	0	Chicago	IL	United States	4	Individual	Refrigerator	3	1	0	0	0	0	0	0	10	0	1	0	0	0	0	0	0	0	Plastic	NonPorous	98	9891	287	-94	914	43840745472
S_32	sourdough_starter	Starter	Keep	428	34.45	-119.74	0	0	1	1	Santa Barbara	CA	United States	3	Individual	Refrigerator	8	1	0	0	0	0	0	0	7	0	1	0	0	0	0	0	0	1	Glass	NonPorous	151	3408	263	46	508	48227766272
S_321	sourdough_starter	Starter	Keep	33	33.96	-117.63	0	0	0	1	Chino	CA	United States	4	Individual	Refrigerator	4	0	1	0	0	0	0	0	3	0	1	0	0	0	0	0	1	0	Glass	NonPorous	178	4420	329	49	300	2.85E+11
S_322	sourdough_starter	Starter	Keep	760	43.77	-91.2	0	0	0	1	La Crosse	WI	United States	5	Individual	Refrigerator	4	0	0	0	0	0	0	0	7	1	0	0	0	0	0	0	0	0	Glass	NonPorous	76	11101	286	-149	797	3.61E+11
S_323	sourdough_starter	Starter	Keep	458	45.51	-122.57	0	0	0	1	Portland	OR	United States	3	Individual	Roomtemp	12	0	1	0	0	1	0	0	1	1	0	0	0	0	0	0	1	0	Plastic	NonPorous	115	5336	264	8	1116	3.61E+11
S_325	sourdough_starter	Starter	Keep	404	38.31	-122.68	0	0	0	0	Penngrove	CA	United States	15	Individual	Refrigerator	4	1	0	0	0	0	0	0	7	0	0	0	0	0	1	0	0	1	Glass	NonPorous	135	3635	265	32	884	5.53E+11
S_327	sourdough_starter	Starter	Keep	806	32.86	-117.23	0	0	0	1	La Jolla	CA	United States	0.083333333	Individual	Refrigerator	4	0	1	0	0	0	0	0	7	1	0	0	0	0	0	0	1	0	Stainless Steel	NonPorous	170	3185	263	74	289	1.98E+11
S_328	sourdough_starter	Starter	Keep	485	37.23	-80.41	1	0	0	1	Blacksburg	VA	United States	2	Individual	Refrigerator	3	1	1	0	0	1	0	0	12	0	1	0	0	1	0	0	1	0	Glass	NonPorous	111	7691	284	-59	991	4.86E+11
S_329	sourdough_starter	Starter	Keep	200	43.8	-69.97	0	0	0	1	Harpswell	ME	United States	44	Individual	Refrigerator	1	0	1	0	0	0	0	0	30	1	0	0	0	0	1	0	0	1	Plastic	NonPorous	78	9078	260	-108	1153	32404924416
S_33	sourdough_starter	Starter	Keep	506	40.81	-74.25	1	1	0	0	West Orange	NJ	United States	0.666666667	Individual	Refrigerator	2	0	1	0	0	0	0	0	15	0	1	0	0	0	0	0	0	0	Plastic	NonPorous	111	8807	294	-65	1224	2.96E+11
S_331	sourdough_starter	Starter	Keep	586	46.88	-124.12	0	0	0	1	Westport	WA	United States	70	Company/Business	Refrigerator	1	0	1	0	0	0	0	0	30	1	0	0	0	0	0	0	0	1	Plastic	NonPorous	99	3557	196	17	2052	4.58E+11
S_333	sourdough_starter	Starter	Keep	763	42.31	-71.11	NA	NA	NA	NA	Boston	MA	United States	NA	Company/Business	Refrigerator	7	1	1	0	0	1	1	0	7	1	0	0	0	0	0	0	1	0	Plastic	NonPorous	97	8693	280	-79	1153	3.62E+11
S_334	sourdough_starter	Starter	Keep	95	44.83	-93.56	1	0	1	1	Chanhassen	MN	United States	0.833333333	Individual	Refrigerator	2	0	1	0	0	0	0	0	10	1	0	0	0	0	0	0	0	0	Plastic	NonPorous	65	11647	284	-175	743	3.47E+11
S_335	sourdough_starter	Starter	Keep	734	40.1	-105.02	1	0	0	1	Erie	CO	United States	0.583333333	Individual	Refrigerator	3	1	1	0	0	0	0	0	10	0	0	0	0	0	0	1	0	1	Glass	NonPorous	98	8464	310	-96	384	2.13E+11
S_336	sourdough_starter	Starter	Keep	802	43.44	-112.02	0	0	0	1	Idaho Falls	ID	United States	20	Individual	Refrigerator	4	1	1	0	0	0	0	0	7	0	0	0	0	0	1	0	0	0	Plastic	NonPorous	68	9221	300	-119	282	2.25E+11
S_338	sourdough_starter	Starter	Keep	754	47.58	-122.39	0	0	1	1	Seattle	WA	United States	6	Individual	Roomtemp	12	0	1	0	0	1	0	0	30	1	0	0	0	0	0	0	0	1	Glass	NonPorous	108	4857	236	13	982	2.75E+11
S_339	sourdough_starter	Starter	Keep	633	-35.35	149.04	0	0	1	0	Canberra	NA	Australia	25	Individual	Refrigerator	3	0	1	0	0	0	0	0	6	0	0	0	0	0	0	1	0	0	Plastic	NonPorous	124	5175	275	-7	729	5.05E+11
S_34	sourdough_starter	Starter	Keep	126	43.68	-84.21	0	0	0	1	Midland	MI	United States	1.25	Individual	Refrigerator	5	0	1	0	0	0	0	0	7	0	1	0	0	0	0	0	1	0	Plastic	NonPorous	76	9715	280	-110	766	2.82E+11
S_340	sourdough_starter	Starter	Keep	838	-35.35	149.04	1	0	0	0	Canberra	Australian Capital Territory	Australia	25	Individual	Refrigerator	4	1	1	0	0	0	0	0	6	0	0	0	0	0	0	1	0	0	Plastic	NonPorous	124	5175	275	-7	729	5.05E+11
S_341	sourdough_starter	Starter	Keep	426	41.75	-111.84	0	0	1	0	Logan	UT	United States	0.833333333	Individual	Refrigerator	4	1	1	1	0	1	0	0	3.5	1	0	0	0	0	0	0	0	1	Glass	NonPorous	88	9258	319	-94	457	2.91E+11
S_342	sourdough_starter	Starter	Keep	753	44.75	-78.05	0	0	1	0	Apsley	Ontario	Canada	75	Individual	Roomtemp	12	1	1	0	0	0	0	0	0.5	0	1	0	0	0	1	0	1	1	Plastic	NonPorous	52	10140	250	-151	873	3.35E+11
S_343	sourdough_starter	Starter	Keep	616	35.78	-78.66	0	1	0	1	Raleigh	NC	United States	0.020833333	Individual	Roomtemp	12	1	1	1	0	0	0	0	1	1	1	0	0	0	0	0	0	1	Plastic	Porous	154	7527	318	-15	1146	4.26E+11
S_344	sourdough_starter	Starter	Keep	839	39.82	-84.93	1	0	0	0	Richmond	IN	United States	100	Individual	Refrigerator	8	1	1	0	0	0	0	0	1.75	0	1	0	0	0	0	0	0	1	Stainless Steel	NonPorous	102	9154	293	-86	1024	3.64E+11
S_346	sourdough_starter	Starter	Keep	811	51.84	5.88	0	0	1	0	Nijmegen	Gelderland	Netherlands	2	Individual	Refrigerator	4	0	1	0	0	0	0	0	7	1	0	0	0	0	0	0	0	0	Glass	Porous	95	5516	216	-7	768	2.55E+11
S_347	sourdough_starter	Starter	Keep	574	49.32	-122.96	0	0	1	0	North Vancouver 	British Columbia	Canada	0.666666667	Individual	Refrigerator	4	1	0	0	0	0	0	0	7	1	0	0	0	0	0	0	1	0	Plastic	NonPorous	97	5333	228	-7	1422	3.46E+11
S_348	sourdough_starter	Starter	Keep	576	49.32	-122.96	0	0	1	0	North Vancouver 	British Columbia	Canada	NA	Company/Business	Refrigerator	4	1	0	0	0	0	0	0	7	1	0	0	0	0	0	0	1	0	Plastic	NonPorous	97	5333	228	-7	1422	3.46E+11
S_35	sourdough_starter	Starter	Keep	237	35.96	-78.94	1	0	1	1	Durham	NC	United States	6	Individual	Refrigerator	4	1	1	0	0	0	0	0	7	1	0	0	0	0	0	0	0	0	Plastic	NonPorous	150	7616	317	-21	1141	4.32E+11
S_350	sourdough_starter	Starter	Keep	255	30.51	-86.47	0	0	0	1	Niceville	FL	United States	13	Company/Business	Refrigerator	2	0	1	0	0	0	0	0	15	1	0	0	0	0	0	0	0	1	Glass	NonPorous	192	6276	322	44	1541	4.11E+11
S_351	sourdough_starter	Starter	Keep	849	40.88	-73.03	1	0	0	0	Middle Island	NY	United States	2	Individual	Refrigerator	3	1	0	0	0	0	0	0	7	0	1	0	0	0	0	0	0	0	Glass	NonPorous	109	8343	277	-52	1159	3.86E+11
S_352	sourdough_starter	Starter	Keep	850	42.05	-80.18	1	0	0	0	Fairview	PA	United States	0.75	Individual	Refrigerator	5	1	0	0	0	0	0	0	7	0	1	0	0	0	1	0	1	0	Glass	NonPorous	92	9062	271	-80	1029	3.44E+11
S_353	sourdough_starter	Starter	Keep	282	40.77	-73.95	0	0	0	1	New York	NY	United States	30	Individual	Refrigerator	2	1	1	0	0	0	0	0	15	1	0	0	0	0	0	0	1	0	Glass	NonPorous	120	8698	291	-41	1126	3.27E+11
S_354	sourdough_starter	Starter	Keep	769	45.90152	-109.813696	0	0	0	1	NA	NA	NA	2	Individual	Refrigerator	2	0	0	0	0	0	0	0	15	1	0	0	0	0	0	0	0	0	Glass	NonPorous	66	8260	282	-111	403	1.44E+11
S_355	sourdough_starter	Starter	Keep	854	42.81	-71.36	0	0	1	1	Londonderry	NH	United States	2	Individual	Refrigerator	5	1	0	0	1	0	0	0	7	1	0	0	0	0	0	0	1	0	Plastic	NonPorous	85	9260	281	-108	1089	3.76E+11
S_356	sourdough_starter	Starter	Keep	836	39.31	-77.56	0	0	0	1	Jefferson	MD	United States	170	Company/Business	Refrigerator	1	0	1	0	0	0	0	0	30	0	1	0	0	0	1	0	1	1	Glass	NonPorous	120	8595	304	-58	995	4.51E+11
S_357	sourdough_starter	Starter	Keep	852	33.24	-111.67	1	0	0	0	Queen Creek	AZ	United States	4	Individual	Refrigerator	12	0	0	0	0	0	0	0	7	0	1	0	0	0	0	0	0	1	Glass	NonPorous	212	7687	405	29	220	99304767488
S_358	sourdough_starter	Starter	Keep	630	35.78	-78.65	NA	NA	NA	NA	Raleigh	NC	United States	NA	Company/Business	Refrigerator	2	0	1	0	0	0	0	0	15	1	0	0	0	0	0	0	1	0	Glass	NonPorous	154	7527	318	-15	1146	4.26E+11
S_359	sourdough_starter	Starter	Keep	847	51.53	-0.21	1	0	0	0	London	London	United Kingdom	0.166666667	Individual	Roomtemp	12	0	1	0	0	0	0	0	1	1	0	0	0	0	0	0	0	0	Stainless Steel	Porous	103	4827	223	9	645	2.38E+11
S_36	sourdough_starter	Starter	Keep	381	28.09	-80.57	0	1	0	0	Indialantic	FL	United States	2	Individual	Refrigerator	4	0	1	0	0	0	0	0	7	1	0	0	0	1	0	0	0	0	Glass	NonPorous	223	4085	318	110	1248	71617855488
S_361	sourdough_starter	Starter	Keep	618	14.95	102.02	0	1	0	0	Nakhon Ratchasima	Nakhon Ratchasima	Thailand	5	Individual	Refrigerator	4	0	1	0	0	0	0	0	7	0	0	1	0	0	0	0	0	0	Plastic	NonPorous	269	2120	359	162	1117	3.60E+11
S_362	sourdough_starter	Starter	Keep	841	39.98	-75.25	0	0	0	1	Philadelphia	PA	United States	2	Individual	Roomtemp	12	0	1	0	0	0	0	0	1	1	0	0	0	0	1	0	0	0	Glass	NonPorous	124	8775	302	-47	1109	2.68E+11
S_363	sourdough_starter	Starter	Keep	864	42.25	-71.52	0	0	0	1	Hopkinton	MA	United States	5	Individual	Refrigerator	4	0	1	0	0	0	0	0	7	0	1	0	0	0	0	0	1	0	Glass	NonPorous	88	8979	277	-99	1171	3.79E+11
S_364	sourdough_starter	Starter	Keep	223	-37.72	145.16	1	0	0	1	Eltham	Victoria	Australia	6	Individual	Refrigerator	4	1	0	0	0	0	0	0	7	1	0	0	0	0	0	0	0	0	Glass	NonPorous	146	3836	264	53	738	5.60E+11
S_365	sourdough_starter	Starter	Keep	851	46.24	-63.12	0	0	0	1	Charlottetown	Prince Edward Island	Canada	0.166666667	Individual	Refrigerator	3	1	1	0	0	0	0	0	10	1	0	0	0	0	0	0	0	0	Glass	NonPorous	58	8980	235	-111	1126	35283451904
S_368	sourdough_starter	Starter	Keep	238	45.49	-122.6	0	0	0	1	Portland 	OR	United States	5	Company/Business	Refrigerator	1	0	1	0	0	0	0	0	30	1	0	0	0	0	0	0	1	0	Glass	NonPorous	116	5317	268	11	1205	3.93E+11
S_369	sourdough_starter	Starter	Keep	859	46.63	-120.68	0	0	0	1	Yakima	WA	United States	0.583333333	Individual	Refrigerator	1	0	1	0	0	0	0	0	36.5	0	1	0	0	0	1	0	1	1	Ceramic	NonPorous	80	7336	276	-65	351	2.90E+11
S_37	sourdough_starter	Starter	Keep	285	40.9	-81.51	0	0	0	1	Clinton	OH	United States	4.5	Individual	Refrigerator	8	0	1	0	0	1	0	0	15	0	0	0	0	0	1	0	0	1	Glass	Porous	97	9006	282	-81	945	3.20E+11
S_372	sourdough_starter	Starter	Keep	542	33.87	-84.14	0	0	0	1	Lilburn	GA	United States	5	Individual	Refrigerator	5	0	1	0	0	0	0	0	4.666666667	0	1	0	0	0	0	0	0	1	Glass	NonPorous	155	7199	312	-8	1346	4.52E+11
S_373	sourdough_starter	Starter	Keep	424	35.27	-111.49	0	0	1	1	Flagstaff	AZ	United States	8	Individual	Refrigerator	6	1	1	0	0	0	1	0	4.666666667	1	0	0	0	0	0	1	1	1	Plastic	NonPorous	98	7541	298	-75	424	79188688896
S_374	sourdough_starter	Starter	Keep	832	35.66	-105.93	NA	NA	NA	NA	Santa Fe	NM	United States	100	Individual	Refrigerator	8	0	1	0	0	1	0	0	3.5	1	0	0	0	0	0	0	0	1	Glass	NonPorous	91	7649	288	-90	413	2.59E+11
S_375	sourdough_starter	Starter	Keep	831	35.66	-105.93	NA	NA	NA	NA	Santa Fe	NM	United States	14	Individual	Refrigerator	8	0	1	0	0	1	0	0	3.5	1	0	0	0	0	0	0	0	1	Glass	NonPorous	91	7649	288	-90	413	2.59E+11
S_377	sourdough_starter	Starter	Keep	374	44.42	-109.26	0	0	0	1	Cody	WY	United States	5	NA	Refrigerator	5	0	0	0	0	0	0	0	3.5	0	0	0	0	0	0	1	0	0	Glass	NonPorous	57	7809	262	-115	339	1.36E+11
S_378	sourdough_starter	Starter	Keep	681	47.59	-122.31	0	0	0	1	Seattle	WA	United States	1	Individual	Refrigerator	5	1	1	1	0	0	0	0	7	0	1	0	0	0	0	0	0	0	Glass	NonPorous	110	4883	241	15	998	2.75E+11
S_379	sourdough_starter	Starter	Keep	860	35.81	-78.59	0	0	1	1	Raleigh	NC	United States	0.5	Individual	Roomtemp	12	0	1	0	0	0	0	0	1	0	0	0	0	0	1	0	1	0	Glass	NonPorous	154	7527	318	-15	1146	4.26E+11
S_38	sourdough_starter	Starter	Keep	178	40.94	-76.87	1	0	0	0	Lewisburg	PA	United States	1.833333333	Individual	Refrigerator	12	0	0	0	0	0	0	0	4.666666667	0	0	0	0	0	1	0	0	1	Ceramic	NonPorous	99	8976	291	-81	1035	3.75E+11
S_380	sourdough_starter	Starter	Keep	386	42.7	-73.86	0	0	0	1	Albany	NY	United States	1.583333333	Individual	Refrigerator	5	1	1	0	0	0	0	0	7	1	0	0	0	0	0	1	0	0	Glass	NonPorous	84	9569	283	-111	959	3.51E+11
S_381	sourdough_starter	Starter	Keep	718	60.71	-135.11	0	1	0	0	Whitehorse	Yukon	Canada	0.75	Individual	Refrigerator	4	1	0	0	0	0	0	0	15	1	0	0	0	0	0	0	0	0	Glass	NonPorous	-11	11055	203	-233	270	94741536768
S_382	sourdough_starter	Starter	Keep	585	44.63	-123.12	0	0	1	1	Albany	OR	United States	6	Individual	Refrigerator	12	1	1	0	0	0	0	0	2.8	1	0	0	0	0	0	0	0	0	Glass	NonPorous	114	5123	274	8	1091	3.90E+11
S_383	sourdough_starter	Starter	Keep	872	48.12	-114.46	0	0	1	1	Kila	MT	United States	5	Individual	Refrigerator	5	1	0	0	0	0	0	0	3.5	0	1	0	0	0	0	0	0	0	Glass	NonPorous	44	7784	252	-111	607	2.37E+11
S_384	sourdough_starter	Starter	Keep	691	39.86	-86.26	0	0	0	1	Indianapolis	IN	United States	0.25	Individual	Fridgeandroomtemp	12	1	0	0	0	0	0	0	1	0	1	0	0	0	0	0	0	0	Plastic	NonPorous	107	9449	296	-84	1017	3.25E+11
S_385	sourdough_starter	Starter	Keep	62	38.56	-121.72	1	0	0	1	Davis	CA	United States	0.333333333	Individual	Fridgeandroomtemp	12	0	0	0	0	0	0	0	0.5	0	1	0	0	0	0	0	0	1	Glass	NonPorous	159	5978	346	27	477	3.66E+11
S_386_2	sourdough_starter	Starter	Keep	164	-33.99	151.07	0	0	0	1	Oatley	New South Wales	Australia	0.833333333	Individual	Refrigerator	4	0	1	0	0	0	0	0	1.75	1	0	0	0	0	0	0	0	0	Plastic	NonPorous	175	3823	269	63	1098	59250388992
S_387	sourdough_starter	Starter	Keep	182	42.38	-71.1	0	0	0	1	Somerville	MA	United States	12	Individual	Roomtemp	12	1	1	0	0	0	0	0	1	1	0	0	0	0	0	0	0	1	Glass	NonPorous	96	8769	281	-81	1121	3.62E+11
S_388	sourdough_starter	Starter	Keep	550	33.97	-118.39	0	0	0	1	Los Angeles	CA	United States	23	Company/Business	Refrigerator	2	0	0	1	0	0	0	0	15	1	0	0	0	0	0	0	0	0	Glass	NonPorous	178	2961	273	88	334	1.17E+11
S_389	sourdough_starter	Starter	Keep	612	37.91	-122.38	NA	NA	NA	NA	Richmond	CA	United States	44	Individual	Refrigerator	4	0	1	0	0	0	0	0	7	0	0	0	0	0	0	1	0	1	Glass and plastic	NonPorous	144	3085	238	55	747	3.25E+11
S_39	sourdough_starter	Starter	Keep	166	43.68	-79.32	0	0	1	0	Toronto	Ontario	Canada	3	Individual	Refrigerator	6	0	0	0	0	0	0	0	4.666666667	0	0	0	0	0	0	1	0	0	Glass	NonPorous	80	9471	266	-95	781	39548538880
S_390	sourdough_starter	Starter	Keep	857	43.12	-89.36	0	0	0	1	Madison	WI	United States	9	Company/Business	Refrigerator	3	1	0	0	1	0	0	0	9.5	0	1	0	0	0	0	0	1	0	Glass	NonPorous	77	10538	283	-136	805	3.36E+11
S_391	sourdough_starter	Starter	Keep	848	45.47	-122.75	0	0	0	1	Portland	OR	United States	NA	Individual	Refrigerator	6	0	1	0	0	0	0	0	2.8	1	0	0	0	0	0	0	1	0	Glass	NonPorous	113	5339	267	5	1086	3.93E+11
S_392	sourdough_starter	Starter	Keep	867	36.02	-78.91	0	0	0	1	Durham	NC	United States	31	Company/Business	Refrigerator	3	1	0	0	0	0	0	0	10	0	1	0	0	0	0	0	0	1	Glass	NonPorous	146	7678	316	-27	1150	4.70E+11
S_393	sourdough_starter	Starter	Keep	792	40.64	-74.56	NA	NA	NA	NA	Warren	NJ	United States	NA	Individual	Refrigerator	4	0	1	0	0	1	0	0	7	0	1	0	0	0	0	0	0	0	Ceramic	Porous	107	8708	295	-72	1196	4.70E+11
S_394	sourdough_starter	Starter	Keep	862	35.86	-78.69	0	0	1	0	Raleigh	NC	United States	NA	Individual	Refrigerator	1	0	1	0	0	0	0	0	7	0	1	0	0	0	0	0	0	0	Plastic	NonPorous	150	7606	316	-20	1134	4.26E+11
S_395	sourdough_starter	Starter	Keep	682	37.42	-122.1	0	1	0	0	Palo Alto	CA	United States	50	Individual	Refrigerator	4	0	0	0	1	0	0	0	7	0	1	0	0	0	0	0	1	0	Ceramic	NonPorous	147	3624	253	44	431	3.73E+11
S_396	sourdough_starter	Starter	Keep	353	43.66	-79.46	0	0	0	1	Toronto	Ontario	Canada	0.583333333	Individual	Refrigerator	4	1	0	0	0	0	0	0	7	1	0	0	0	0	0	0	1	1	Glass	NonPorous	84	9406	269	-87	782	39548538880
S_397	sourdough_starter	Starter	Keep	64	38.79	-77.28	1	0	1	0	Burke	VA	United States	2.5	Individual	Refrigerator	5	1	0	0	0	0	0	0	4.666666667	1	0	0	0	0	0	0	0	0	Glass	NonPorous	128	8457	303	-46	1008	5.33E+11
S_398	sourdough_starter	Starter	Keep	41	47.71	-122.3	0	0	1	0	Seattle	WA	United States	7	Individual	Fridgeandroomtemp	4	1	1	0	0	0	0	0	6	0	1	0	0	0	0	0	0	1	Glass	NonPorous	106	4722	231	14	988	2.75E+11
S_399	sourdough_starter	Starter	Keep	401	42.83	-83.19	1	0	0	1	Oxford	MI	United States	2	Individual	Refrigerator	2	0	1	0	0	0	0	0	4.666666667	0	0	0	0	0	1	0	0	1	Plastic	NonPorous	86	9692	284	-96	788	3.60E+11
S_4	sourdough_starter	Starter	Keep	99	42.29	-72.7	0	0	0	1	Florence	MA	United States	20	Company/Business	Refrigerator	0	1	0	0	0	0	0	0	14	0	1	0	0	0	0	0	1	0	Glass	NonPorous	82	9332	279	-113	1173	3.92E+11
S_40	sourdough_starter	Starter	Keep	55	27.05	-82.13	0	1	0	0	north port	FL	United States	2	Individual	Refrigerator	1	1	0	0	1	0	0	0	30	0	0	1	0	0	0	0	1	1	Plastic	NonPorous	226	4106	330	100	1301	5.94E+11
S_400	sourdough_starter	Starter	Keep	310	37	-121.85	NA	NA	NA	NA	Aptos	CA	United States	6	Company/Business	Refrigerator	6	0	1	1	0	0	0	0	5	0	0	1	0	0	0	0	0	1	Glass	NonPorous	139	3050	245	38	656	5.23E+11
S_401	sourdough_starter	Starter	Keep	13	47.66	-122.34	0	0	0	1	Seattle	WA	United States	170	NA	Refrigerator	2	0	1	0	0	0	1	0	15	1	0	0	0	0	0	0	0	0	Glass	NonPorous	108	4857	236	13	982	2.75E+11
S_402	sourdough_starter	Starter	Keep	776	40.38	-86.88	1	1	1	0	Lafayette	IN	United States	0.25	Individual	Refrigerator	4	0	1	0	0	0	0	0	2	0	0	0	0	0	0	1	1	0	Glass	NonPorous	103	9684	296	-94	947	3.23E+11
S_403	sourdough_starter	Starter	Keep	343	40.53	-75.32	0	0	0	1	Coopersburg	PA	United States	25	Individual	Refrigerator	3	0	1	0	0	0	0	0	12	0	0	0	0	0	1	0	0	1	Ceramic	NonPorous	103	8825	293	-74	1164	3.18E+11
S_404	sourdough_starter	Starter	Keep	294	37.25	-121.88	NA	NA	NA	NA	San Jose	CA	United States	2	Company/Business	Refrigerator	12	1	1	0	0	0	0	0	1.75	1	0	0	0	0	0	0	0	0	Glass	NonPorous	148	4123	284	35	569	5.84E+11
S_405	sourdough_starter	Starter	Keep	884	39.12	-84.6	1	0	0	0	Cinncinnati	OH	United States	0.166666667	Individual	Refrigerator	4	0	1	0	0	0	0	0	7	0	0	1	0	0	0	0	1	1	Ceramic	NonPorous	118	8990	301	-66	1063	4.00E+11
S_406	sourdough_starter	Starter	Keep	701	49.88	-97.19	0	0	0	1	Winnipeg	Manitoba	Canada	0.75	Individual	Roomtemp	12	0	1	0	0	0	0	0	2.8	1	0	0	0	0	0	0	0	0	Plastic	NonPorous	21	13225	257	-241	519	1.94E+11
S_407	sourdough_starter	Starter	Keep	791	41.68	-69.98	1	0	0	1	Chatham	MA	United States	0.5	Individual	Refrigerator	8	1	0	0	0	0	0	0	10	0	0	1	0	0	0	0	1	0	Plastic	NonPorous	95	7575	240	-50	1122	NA
S_409	sourdough_starter	Starter	Keep	591	37.69	-122.08	0	0	0	1	Castro Valley	CA	United States	16	Company/Business	Refrigerator	1	0	1	0	0	0	0	0	20	1	0	0	0	0	0	0	0	1	Ceramic	NonPorous	144	3853	261	43	562	4.22E+11
S_41	sourdough_starter	Starter	Keep	503	35.37	-83.57	1	0	1	0	Almond	NC	United States	14	Individual	Refrigerator	4	1	0	0	0	0	0	0	7	0	0	0	0	0	1	0	1	0	Glass	NonPorous	120	7123	281	-52	1534	5.33E+11
S_410	sourdough_starter	Starter	Keep	276	39.07	-77.28	0	1	0	0	Gaithersburg	MD	United States	100	Individual	Refrigerator	1	0	1	0	0	0	0	0	45	0	0	0	0	0	0	1	0	1	Glass	NonPorous	123	8509	303	-53	1021	4.63E+11
S_411	sourdough_starter	Starter	Keep	606	35.95	-84.19	0	0	0	1	Knoxville 	TN	United States	15	Individual	Refrigerator	1	0	0	0	0	0	0	0	30	0	0	0	0	0	1	0	0	0	Glass	NonPorous	139	7916	308	-35	1356	4.43E+11
S_412	sourdough_starter	Starter	Keep	100	41.84	-72.37	0	0	1	0	Tolland	CT	United States	1	Individual	Refrigerator	4	1	1	0	0	0	0	0	7	0	0	0	0	0	1	0	1	0	Plastic	NonPorous	87	8962	276	-98	1194	3.83E+11
S_413	sourdough_starter	Starter	Keep	7	35.44	-80.88	0	0	0	1	Huntersville	NC	United States	0.5	Individual	Refrigerator	12	1	0	0	0	0	0	0	7	0	1	0	0	0	0	0	0	0	Plastic	NonPorous	151	7608	317	-19	1152	4.13E+11
S_414	sourdough_starter	Starter	Keep	120	41.31	-105.59	0	1	0	0	Laramie	WY	United States	2	Individual	Refrigerator	3	0	1	0	0	0	0	0	10	0	1	0	0	0	0	0	0	0	Plastic	NonPorous	48	8124	262	-120	344	1.12E+11
S_415	sourdough_starter	Starter	Keep	564	37.65	-122.42	0	0	1	1	San Francisco	CA	United States	4.5	Individual	Refrigerator	8	1	1	0	0	0	0	0	3.75	0	1	0	0	0	0	0	0	0	Plastic	NonPorous	132	2568	218	54	670	47359762432
S_417	sourdough_starter	Starter	Keep	830	45.5	-73.58	1	0	0	1	Montreal	Quebec	Canada	5	Individual	Roomtemp	12	1	1	0	0	0	0	0	2.8	0	1	0	0	0	0	0	0	1	Stainless Steel	Porous	65	10721	269	-145	959	2.31E+11
S_418	sourdough_starter	Starter	Keep	605	39.75	-121.82	0	0	1	0	Chico	CA	United States	0.083333333	Individual	Roomtemp	12	1	1	0	0	0	1	0	1	1	0	0	0	0	0	0	1	1	Glass	NonPorous	159	6409	344	21	847	4.19E+11
S_419	sourdough_starter	Starter	Keep	874	45.65	13.76	0	0	0	1	Trieste	Italy	Italy	NA	Individual	Refrigerator	4	0	0	0	0	0	0	0	7	0	1	0	0	0	0	0	0	0	Glass	NonPorous	138	6342	271	30	1093	3.87E+11
S_42	sourdough_starter	Starter	Keep	273	40.18	-105.15	0	0	0	1	Longmont	CO	United States	40	Individual	Refrigerator	0	0	0	0	0	0	0	1	15	1	0	0	0	0	0	0	1	0	Plastic	NonPorous	94	8534	308	-103	376	2.13E+11
S_420	sourdough_starter	Starter	Keep	269	45.87	-123.96	0	0	0	1	Cannon Beach	OR	United States	3.25	Company/Business	Refrigerator	12	1	0	0	0	0	0	0	0.5	1	0	0	0	0	0	0	0	0	Plastic	NonPorous	96	3427	197	14	2307	4.58E+11
S_421	sourdough_starter	Starter	Keep	777	44.39	-68.21	0	0	0	1	Bar Harbor	ME	United States	15	Individual	Refrigerator	3	0	1	0	0	0	0	0	7	0	1	0	0	0	0	0	1	0	Plastic	NonPorous	68	9106	255	-120	1248	29760565248
S_422	sourdough_starter	Starter	Keep	891	44.39	-68.21	0	0	0	1	Bar Harbor	ME	United States	3	Individual	Refrigerator	2	1	0	0	0	0	0	0	15	0	1	0	0	0	0	0	1	0	Plastic	NonPorous	68	9106	255	-120	1248	29760565248
S_424	sourdough_starter	Starter	Keep	1	41.14	-104.83	0	0	0	1	Cheyenne	WY	United States	55	Individual	Refrigerator	2	0	1	0	0	0	0	0	15	0	0	1	0	0	0	0	1	0	Glass	NonPorous	74	8259	285	-101	386	1.26E+11
S_425	sourdough_starter	Starter	Keep	888a	40.73	-73.99	0	1	0	0	New York	NY	United States	1.5	Individual	Refrigerator	4	0	1	1	0	0	0	0	7	0	1	0	0	0	0	0	0	0	Glass	NonPorous	120	8698	291	-41	1126	46261874688
S_428	sourdough_starter	Starter	Keep	239	44.26	-68.23	0	0	0	1	Islesford	ME	United States	5.5	Individual	Refrigerator	3	0	1	0	0	0	0	0	9	0	0	0	0	0	1	0	0	0	Plastic	NonPorous	71	9008	255	-115	1261	29760565248
S_429	sourdough_starter	Starter	Keep	487	33.44	-111.64	0	0	0	1	Mesa	AZ	United States	15	Company/Business	Refrigerator	1	1	0	0	0	0	0	0	15	1	0	0	0	0	0	0	0	0	Glass	NonPorous	208	7519	395	36	310	82112471040
S_43	sourdough_starter	Starter	Keep	222	45.55	-122.58	1	1	0	0	Portland	OR	United States	4	Individual	Refrigerator	1	1	1	0	0	0	0	0	NA	1	1	0	0	0	0	0	1	0	Glass	NonPorous	115	5336	264	8	1116	3.61E+11
S_430	sourdough_starter	Starter	Keep	749	40.04	-105.04	0	0	0	1	Erie	CO	United States	1	Individual	Fridgeandroomtemp	8	1	0	0	0	0	0	0	1.75	0	1	0	0	0	0	0	0	1	Glass	NonPorous	98	8464	310	-96	384	2.13E+11
S_431	sourdough_starter	Starter	Keep	317	37.99	-121.36	0	0	0	1	Stockton	CA	United States	16.9	Individual	Refrigerator	1	0	1	0	0	0	0	0	30	0	1	1	0	0	0	0	1	0	Plastic	NonPorous	159	5884	336	24	329	3.67E+11
S_432	sourdough_starter	Starter	Keep	878	41.9	-87.8	0	0	0	0	Oak Park	IL	United States	1	Individual	Refrigerator	4	1	0	0	0	0	0	0	7	1	0	0	0	0	0	0	0	1	Glass	NonPorous	98	9891	287	-94	914	1.94E+11
S_433	sourdough_starter	Starter	Keep	533	47.92	-122.42	0	0	0	1	Clinton	WA	United States	3	Individual	Refrigerator	4	1	1	0	0	0	0	0	7	1	0	0	0	0	0	0	1	0	Glass	NonPorous	102	4528	222	13	830	3.98E+11
S_434	sourdough_starter	Starter	Keep	773	36.09	-79.8	0	0	1	0	Greensboro	NC	United States	14	Individual	Fridgeandroomtemp	12	1	1	0	0	1	0	0	3.5	0	1	0	0	0	0	0	0	0	Glass	NonPorous	146	7690	312	-24	1131	3.86E+11
S_435	sourdough_starter	Starter	Keep	658	34.3	-119.29	1	1	0	0	Ventura	CA	United States	1	Company/Business	Refrigerator	1	0	1	1	0	0	0	0	30	0	1	0	0	0	0	0	0	1	Glass	NonPorous	156	2927	262	55	395	4.74E+11
S_436	sourdough_starter	Starter	Keep	875	45.83	13.5	0	0	0	1	Ronchi dei Legionari	NA	Italy	4	Individual	Refrigerator	4	1	0	0	0	0	0	0	7	1	0	0	0	0	0	0	0	0	Glass	NonPorous	132	6413	275	13	1147	3.80E+11
S_437	sourdough_starter	Starter	Keep	868	38.31	-77.22	1	1	0	0	King George	VA	United States	1	Individual	Belowroomtemp	4	1	1	0	0	1	1	0	7	0	0	0	0	0	1	0	0	0	Plastic	NonPorous	135	8231	309	-38	1042	4.25E+11
S_438	sourdough_starter	Starter	Keep	67	44.57	-123.98	1	0	0	0	Toledo	OR	United States	5	Individual	Refrigerator	8	0	1	0	0	0	0	0	7	0	1	0	0	0	0	0	0	1	Plastic	NonPorous	105	3587	213	22	2157	5.07E+11
S_44	sourdough_starter	Starter	Keep	167	40.76	-111.86	0	1	0	0	Salt Lake City	UT	United States	3.5	Individual	Refrigerator	6	0	1	0	0	0	0	0	5	1	0	0	0	0	0	0	0	0	Glass	NonPorous	103	9008	328	-75	451	2.55E+11
S_440	sourdough_starter	Starter	Keep	546	38.46	-77.46	1	0	0	0	Stafford	VA	United States	12	Individual	Roomtemp	4	0	1	0	0	0	0	0	5	1	0	0	0	0	0	0	0	1	Glass	NonPorous	132	8317	310	-43	1029	4.73E+11
S_441	sourdough_starter	Starter	Keep	24	39.33	-76.61	1	0	0	1	Baltimore	MD	United States	0.833333333	Individual	Roomtemp	12	1	1	0	0	0	1	0	1	0	1	0	0	0	0	0	0	0	Glass	NonPorous	133	8722	317	-42	1091	4.53E+11
S_442	sourdough_starter	Starter	Keep	683	42.44	-76.51	0	0	1	0	Ithaca	NY	United States	4	Individual	Refrigerator	3	0	1	0	0	0	0	0	10	1	0	0	0	0	0	0	0	0	Glass	NonPorous	77	9019	268	-101	908	3.60E+11
S_443	sourdough_starter	Starter	Keep	58	43.07	-89.44	NA	NA	NA	NA	Madison	WI	United States	3	Individual	Roomtemp	12	0	0	1	0	0	0	0	0	0	0	1	0	0	0	0	0	0	Glass	Porous	77	10538	283	-136	805	3.36E+11
S_444	sourdough_starter	Starter	Keep	443	32.64	-117.06	0	0	1	0	Chula Vista	CA	United States	0.395833333	Individual	Refrigerator	4	0	1	0	0	0	0	0	7	0	1	0	0	0	0	0	0	1	Glass	NonPorous	170	3106	266	71	234	1.67E+11
S_446	sourdough_starter	Starter	Keep	15	37.59	-122.47	NA	NA	NA	NA	Pacifica	CA	United States	120	Individual	Refrigerator	2	0	0	0	0	0	0	0	15	0	0	0	0	0	0	1	0	0	Glass	NonPorous	132	2568	218	54	670	47359762432
S_447	sourdough_starter	Starter	Keep	461	44.66	-123.23	0	0	0	1	Corvallis	OR	United States	150	NA	Refrigerator	8	0	0	0	0	0	0	0	3.75	1	0	0	0	0	0	0	1	1	Plastic	NonPorous	110	5140	272	7	1160	3.90E+11
S_448	sourdough_starter	Starter	Keep	197	32.34	-92.7	0	0	1	0	Quitman	LA	United States	3	Individual	Roomtemp	12	1	0	0	0	0	0	0	0.5	1	0	0	0	0	0	0	0	0	Glass	Porous	177	7289	338	6	1384	5.89E+11
S_449	sourdough_starter	Starter	Keep	224	45.38	-74.26	1	0	0	0	Rigaud	Quebec	Canada	3.25	Individual	Refrigerator	8	1	1	0	0	0	0	0	10	0	0	0	0	0	1	0	0	0	Glass	NonPorous	60	10628	263	-150	932	2.74E+11
S_450	sourdough_starter	Starter	Keep	103	39.84	-86.14	0	1	0	0	Indianapolis	IN	United States	4	Individual	Refrigerator	4	1	1	0	0	0	0	0	7	0	1	0	0	0	0	0	0	0	Glass	NonPorous	107	9500	295	-85	1011	3.11E+11
S_451	sourdough_starter	Starter	Keep	193	40.71	-74.37	1	0	1	1	Summit	NJ	United States	30	Company/Business	Refrigerator	5	0	1	0	0	0	0	0	7	0	1	0	0	0	0	0	0	1	Glass	NonPorous	105	8752	292	-75	1248	4.03E+11
S_452	sourdough_starter	Starter	Keep	98	39.75	-121.82	0	0	1	1	Chico 	CA	United States	3.666666667	Individual	Refrigerator	8	0	1	0	0	0	0	0	5	1	0	0	0	0	0	0	0	1	Plastic	NonPorous	159	6409	344	21	847	4.19E+11
S_453	sourdough_starter	Starter	Keep	289	32.95	-96.82	0	1	0	0	Dallas	TX	United States	40	Individual	Refrigerator	2	0	1	0	0	0	0	0	15	0	1	0	0	0	0	0	1	0	Glass	NonPorous	183	7912	351	5	956	2.68E+11
S_455	sourdough_starter	Starter	Keep	829	31.55	-110.37	1	0	0	0	Fort Huachuca	AZ	United States	0.583333333	Individual	Roomtemp	12	0	1	0	0	0	0	0	1	0	1	0	0	0	0	0	1	1	Glass	Porous	153	6316	321	-6	450	94364311552
S_457	sourdough_starter	Starter	Keep	489	40.71	-111.82	0	0	1	1	Salt Lake City 	UT	United States	2.5	Individual	Refrigerator	2	1	1	0	0	0	0	0	15	1	0	0	0	0	0	0	1	0	Glass	NonPorous	66	8309	288	-106	660	1.56E+11
S_458	sourdough_starter	Starter	Keep	336	52.53	4.7	1	0	0	0	Uitgeest	North Holland	Netherlands	0.333333333	Individual	Fridgeandroomtemp	12	0	1	0	0	0	0	0	0.75	0	1	0	0	0	0	1	0	0	Glass	NonPorous	92	5270	203	0	784	3.25E+11
S_459	sourdough_starter	Starter	Keep	432	-34.94	138.74	0	0	1	1	Ashton	South Australia 	Australia	4	Individual	Roomtemp	12	1	0	0	0	0	0	0	1	0	0	0	1	0	0	0	1	0	Glass	NonPorous	143	4024	274	48	862	3.58E+11
S_46	sourdough_starter	Starter	Keep	280	46.19	-123.82	1	0	0	1	Astoria	OR	United States	0.5	Individual	Fridgeandroomtemp	12	0	1	0	0	0	0	0	2	0	1	0	0	0	0	0	0	0	Glass	NonPorous	100	3909	212	11	2400	4.51E+11
S_460	sourdough_starter	Starter	Keep	302	37.72	-122.13	0	0	0	1	San Leandro	CA	United States	2.333333333	Company/Business	Refrigerator	2	1	0	0	0	0	0	0	10	1	0	0	0	0	0	0	0	0	Glass	NonPorous	144	3853	261	43	562	4.22E+11
S_461	sourdough_starter	Starter	Keep	133	45.55	-73.57	1	0	1	1	Montreal	Quebec	Canada	0.833333333	Individual	Refrigerator	5	0	1	0	0	0	0	0	15	0	1	0	0	0	0	0	0	0	Glass	NonPorous	62	10802	268	-150	976	2.36E+11
S_462	sourdough_starter	Starter	Keep	771	-33.7	151.11	1	0	1	1	Hornsby	New South Wales	Australia	3.5	Individual	Refrigerator	12	1	1	0	0	0	0	0	2.8	0	1	0	0	0	0	0	0	0	Glass	NonPorous	170	3949	267	54	1156	7.50E+11
S_463	sourdough_starter	Starter	Keep	12	60.29	-134.28	0	1	0	1	Tagish	Yukon	Canada	50	NA	Refrigerator	4	0	0	0	0	0	0	0	1.75	0	0	0	0	0	1	0	0	0	Ceramic	NonPorous	-19	10704	192	-239	268	1.08E+11
S_465	sourdough_starter	Starter	Keep	783	59.28	18.08	1	0	1	0	Enskede	NA	Sweden	NA	Company/Business	Roomtemp	4	1	1	0	0	0	0	0	7	1	0	0	0	0	0	0	0	0	Glass	NonPorous	69	7226	221	-48	523	15477584896
S_466	sourdough_starter	Starter	Keep	220	-33.48	149.49	0	0	0	1	Bathurst	New South Wales	Australia	2	Individual	Refrigerator	4	0	1	0	0	0	0	0	7	0	0	0	1	0	0	0	1	1	Plastic	NonPorous	124	5043	269	-1	768	5.65E+11
S_467	sourdough_starter	Starter	Keep	697	-33.88	151.21	0	0	1	1	Richmond	Tasmania	Australia	0.25	Individual	Refrigerator	4	0	1	0	0	0	0	0	7	1	0	0	0	0	0	0	1	0	Plastic	NonPorous	176	3668	262	71	1244	59250388992
S_468	sourdough_starter	Starter	Keep	52	35.41	-120.87	0	0	1	1	Morro Bay	CA	United States	4	Individual	Roomtemp	12	0	1	0	0	0	0	0	1.555555556	0	1	0	0	0	0	0	1	1	Ceramic	NonPorous	138	2461	240	42	337	4.22E+11
S_469	sourdough_starter	Starter	Keep	880	40.84	-73.94	0	0	1	1	New York	NY	United States	0.083333333	Individual	Refrigerator	8	0	0	1	1	0	0	0	4.666666667	1	0	0	0	0	0	0	0	0	Glass	NonPorous	115	8779	292	-53	1171	3.27E+11
S_470	sourdough_starter	Starter	Keep	716	37.64	-122.48	0	0	0	1	Pacifica	CA	United States	12	Individual	Refrigerator	1	1	1	0	0	0	0	0	20	1	0	0	0	0	0	0	0	1	Plastic	NonPorous	132	2568	218	54	670	47359762432
S_471	sourdough_starter	Starter	Keep	846	51.56	-0.13	1	0	0	1	London	London	United Kingdom	6	Individual	Refrigerator	4	1	1	0	0	0	0	0	7	1	0	1	0	0	0	0	0	0	Glass	NonPorous	108	4918	230	14	622	2.38E+11
S_473	sourdough_starter	Starter	Keep	48	38.55	-121.73	0	0	0	1	David	CA	United States	10	Individual	Roomtemp	12	1	0	0	0	0	0	0	1.75	1	0	0	0	0	0	0	1	0	Glass	Porous	159	5978	346	27	477	3.66E+11
S_474	sourdough_starter	Starter	Keep	81	30.71	-97.73	1	0	0	0	Georgetown	TX	United States	0.020833333	Individual	Roomtemp	1	0	0	0	0	0	0	1	7	0	1	0	0	0	0	0	0	0	Glass	NonPorous	190	7126	350	23	833	2.94E+11
S_475	sourdough_starter	Starter	Keep	213	40.72	-73.95	0	0	0	1	Brooklyn	NY	United States	2	Individual	Refrigerator	5	0	1	0	0	0	0	0	3.5	1	0	0	0	0	0	0	1	0	Glass	NonPorous	120	8698	291	-41	1126	46261874688
S_476	sourdough_starter	Starter	Keep	865	53.37	-3.18	0	0	1	0	Wirral	Merseyside	United Kingdom	34	Individual	Refrigerator	4	0	1	0	0	0	0	0	3.5	1	0	0	0	0	0	0	0	0	Plastic	NonPorous	93	4363	193	6	762	2.79E+11
S_477	sourdough_starter	Starter	Keep	913	34.26	-118.33	0	0	0	1	Sunland	CA	United States	4	Individual	Roomtemp	12	1	1	0	0	1	0	0	1.4	1	1	0	0	0	0	0	1	1	Plastic	NonPorous	159	5240	317	30	518	3.19E+11
S_478	sourdough_starter	Starter	Keep	790	47.49	19	1	0	0	0	Budapest	NA	Hungary	1	Individual	Refrigerator	8	1	1	0	0	0	0	0	2.333333333	0	0	1	0	0	0	0	0	0	Glass	NonPorous	111	7766	271	-34	543	2.10E+11
S_479	sourdough_starter	Starter	Keep	241	-33.61	149.14	0	0	0	1	Carcoar	New South Wales	Australia	8	Company/Business	Refrigerator	2	1	0	0	0	0	0	0	30	0	1	0	0	0	0	0	0	1	Plastic	NonPorous	126	5107	276	1	873	5.92E+11
S_48	sourdough_starter	Starter	Keep	477	43.03	-76.12	0	0	0	1	Syracuse	NY	United States	5.5	Individual	Refrigerator	2	1	1	0	1	0	0	0	8.571428571	1	0	0	0	0	0	0	0	0	Glass	NonPorous	83	9394	275	-100	1023	3.45E+11
S_480	sourdough_starter	Starter	Keep	344	-33.88	151.21	1	0	1	1	Darlinghurst	New South Wales	Australia	6	Individual	Refrigerator	2	1	0	0	0	0	0	0	12	1	0	0	0	0	0	0	0	0	Glass	NonPorous	176	3668	262	71	1244	59250388992
S_481	sourdough_starter	Starter	Keep	917	47.58	-122.15	0	1	0	0	Bellevue	WA	United States	3	Company/Business	Belowroomtemp	12	1	1	0	0	0	0	0	1	1	0	0	0	0	0	0	0	0	Plastic	NonPorous	103	4822	236	8	1272	3.99E+11
S_482	sourdough_starter	Starter	Keep	918	47.58	-122.15	0	0	0	1	Bellevue	WA	United States	3	Company/Business	Belowroomtemp	12	1	1	0	0	0	0	0	1	1	0	0	0	0	0	0	0	0	Plastic	NonPorous	103	4822	236	8	1272	3.99E+11
S_483	sourdough_starter	Starter	Keep	919	47.58	-122.15	1	0	0	0	Bellevue	WA	United States	3	Company/Business	Belowroomtemp	12	1	1	0	0	0	0	0	1	1	0	0	0	0	0	0	0	0	Plastic	NonPorous	103	4822	236	8	1272	3.99E+11
S_485	sourdough_starter	Starter	Keep	125	43.16	-78.68	0	0	1	0	Lockport	NY	United States	2	Individual	Refrigerator	1	0	1	1	0	1	0	0	30	1	0	0	0	0	0	0	0	0	Glass	Porous	85	9274	273	-86	918	3.45E+11
S_486	sourdough_starter	Starter	Keep	465	37.87	-122.31	1	0	0	1	Berkeley 	CA	United States	0.333333333	Company/Business	Refrigerator	8	0	1	0	0	0	0	0	2.8	1	0	0	0	0	0	0	0	0	Plastic	NonPorous	143	3412	246	50	658	3.25E+11
S_487	sourdough_starter	Starter	Keep	907	38.94	-77.02	0	0	1	1	Washington	DC	United States	0.5	Individual	Refrigerator	4	0	1	0	0	0	0	0	7	1	0	0	0	0	0	0	1	0	Plastic	NonPorous	129	8534	307	-46	1035	4.19E+11
S_488	sourdough_starter	Starter	Keep	571	36.07	-115.05	0	1	0	0	Henderson	NV	United States	120	Individual	Refrigerator	1	0	1	0	0	0	0	0	60.83333333	1	1	0	0	0	0	0	1	0	Glass	NonPorous	192	8635	398	10	105	50007588864
S_489	sourdough_starter	Starter	Keep	68	30.41	-97.76	0	0	1	0	Austin	TX	United States	8	Individual	Refrigerator	8	0	0	0	0	0	0	0	7	1	0	0	0	0	0	0	1	0	Plastic	NonPorous	195	6934	351	30	833	2.71E+11
S_49	sourdough_starter	Starter	Keep	205	40.02	-75.23	0	0	0	1	Bala Cynwyd	PA	United States	1.083333333	Individual	Refrigerator	2	1	0	0	0	0	0	0	15	0	0	1	0	0	0	0	1	0	Glass	NonPorous	117	8771	297	-55	1139	4.27E+11
S_490	sourdough_starter	Starter	Keep	363	35.18	-83.39	0	0	0	1	Franklin	NC	United States	20	Company/Business	Roomtemp	12	0	1	1	0	0	0	0	1	0	1	1	0	0	0	0	0	1	Glass	NonPorous	121	7014	282	-50	1599	5.47E+11
S_491	sourdough_starter	Starter	Keep	51	43.44	-72.89	0	0	0	0	East Wallingford	VT	United States	15	Individual	Refrigerator	1	0	1	0	0	0	0	0	24.33333333	0	0	0	0	0	1	0	0	1	Glass	NonPorous	57	9615	256	-144	1201	3.53E+11
S_492	sourdough_starter	Starter	Keep	750	40.68	-74	0	0	0	1	Brooklyn	NY	United States	0.583333333	Individual	Refrigerator	4	1	1	0	0	0	0	0	7	0	1	0	0	0	0	0	0	0	Glass	NonPorous	120	8698	291	-41	1126	46261874688
S_493	sourdough_starter	Starter	Keep	421	41.89	-87.64	0	0	0	1	Chicago	IL	United States	8	Individual	Refrigerator	8	0	1	0	0	0	0	0	10.42857143	1	0	0	0	0	0	0	0	0	Plastic	NonPorous	99	9813	286	-91	915	43840745472
S_494	sourdough_starter	Starter	Keep	579	42.33	-78.64	0	1	0	0	Ellicottville	NY	United States	0.416666667	Individual	Refrigerator	4	0	1	0	0	0	0	0	7	0	0	0	0	0	1	0	1	0	Plastic	NonPorous	63	8915	252	-118	1104	3.53E+11
S_495	sourdough_starter	Starter	Keep	661	37.58	-122.37	0	0	0	1	Burlingame	CA	United States	0.5	Individual	Refrigerator	8	0	1	0	0	0	0	0	10	0	0	1	0	0	0	0	0	0	Plastic	NonPorous	132	2568	218	54	670	47359762432
S_496	sourdough_starter	Starter	Keep	274	43.72	-79.41	0	0	0	1	Toronto	Ontario	Canada	1.583333333	Individual	Refrigerator	1	1	1	0	0	0	0	0	7	0	1	0	0	0	0	0	0	0	Glass	NonPorous	78	9560	266	-97	789	39548538880
S_497	sourdough_starter	Starter	Keep	824	34.03	-118.38	0	0	1	0	Culver City	CA	United States	2	Individual	Refrigerator	2	0	1	0	0	0	1	0	12	1	0	0	0	0	0	0	0	0	Glass	NonPorous	175	3368	284	76	399	2.51E+11
S_498	sourdough_starter	Starter	Keep	46	35.56	-82.51	1	0	1	0	Asheville	NC	United States	4	Individual	Refrigerator	8	1	1	0	0	0	0	0	5	1	0	0	0	0	0	0	1	0	Glass	NonPorous	125	7230	288	-44	1163	4.73E+11
S_5	sourdough_starter	Starter	Keep	136	47.68	-122.29	0	0	0	1	Seattle	WA	United States	5	Company/Business	Refrigerator	4	0	1	0	0	0	0	0	7	1	0	0	0	0	0	0	0	0	Plastic	NonPorous	106	4722	231	14	988	2.75E+11
S_50	sourdough_starter	Starter	Keep	446	43.89	-71.58	0	0	0	1	Thornton	NH	United States	2	Individual	Refrigerator	3	0	1	0	0	0	0	0	10	0	0	0	0	0	1	0	0	1	Glass	NonPorous	47	9584	245	-156	1233	3.64E+11
S_501	sourdough_starter	Starter	Keep	522	29.75	-95.32	0	0	0	1	Houston	TX	United States	5	Company/Business	Refrigerator	1	0	1	0	0	0	0	0	30	1	0	0	0	0	0	0	0	0	Plastic	NonPorous	205	6175	334	62	1208	3.71E+11
S_502	sourdough_starter	Starter	Keep	650	35.9	-79.06	0	0	1	1	Apex	NC	United States	1.5	Individual	Refrigerator	1	0	1	0	0	0	0	0	30	0	0	0	0	0	1	0	0	0	Glass	NonPorous	147	7590	315	-24	1161	5.07E+11
S_504	sourdough_starter	Starter	Keep	217	34.26	-118.61	NA	NA	NA	NA	Chatsworth	CA	United States	120	Individual	Refrigerator	1	0	1	0	0	0	0	0	45.625	1	0	0	0	0	0	0	0	1	Glass	NonPorous	165	4457	306	45	463	2.94E+11
S_505	sourdough_starter	Starter	Keep	557	45.55	-73.69	1	0	0	1	Laval	Quebec	Canada	0.5	Individual	Roomtemp	12	0	0	0	0	0	0	0	0.5	0	1	0	0	0	0	0	1	0	Glass	NonPorous	61	10760	265	-150	959	2.36E+11
S_506	sourdough_starter	Starter	Keep	233	57.81	-152.35	0	0	1	1	Kodiak	AK	United States	0.916666667	Individual	Roomtemp	12	0	1	0	0	0	0	0	2.5	1	0	0	0	0	0	1	0	1	Glass	NonPorous	45	4981	157	-38	1632	13712908288
S_507	sourdough_starter	Starter	Keep	909	38.92	-77.05	NA	NA	NA	NA	Washington	DC	United States	4	Individual	Fridgeandroomtemp	2	0	1	0	0	0	0	0	10	0	0	1	0	0	0	0	0	0	Plastic	NonPorous	129	8534	307	-46	1035	4.19E+11
S_508	sourdough_starter	Starter	Keep	645	28.06	-82.49	0	0	0	1	Tampa	FL	United States	0.083333333	Individual	Refrigerator	4	0	0	0	0	0	0	0	7	0	0	1	0	0	0	0	0	1	Glass	NonPorous	222	4561	326	96	1261	6.05E+11
S_509	sourdough_starter	Starter	Keep	902	35.18	-83.39	0	0	0	1	Franklin	NC	United States	15	Company/Business	Roomtemp	10	0	0	0	0	0	0	0	1.75	0	0	1	0	0	0	0	0	1	Glass	NonPorous	121	7014	282	-50	1599	5.47E+11
S_51	sourdough_starter	Starter	Keep	396	38.93	-77.03	0	0	0	1	Washington	DC	United States	2.166666667	Individual	Refrigerator	4	0	1	0	0	0	0	0	7	1	0	0	0	0	0	0	0	0	Plastic	NonPorous	129	8534	307	-46	1035	4.19E+11
S_510	sourdough_starter	Starter	Keep	332	39.72	-105.14	0	0	0	1	Lakewood 	CO	United States	3	Individual	Roomtemp	3	1	0	0	0	0	0	0	10	1	0	0	0	0	0	0	0	1	Glass	NonPorous	98	8166	303	-87	410	1.92E+11
S_511	sourdough_starter	Starter	Keep	230	35.41	-76.66	0	1	0	0	Belhaven	NC	United States	37	Individual	Refrigerator	2	0	0	0	0	0	0	0	15	0	1	0	0	0	0	0	1	1	Plastic	NonPorous	164	7152	313	2	1322	46475800576
S_512	sourdough_starter	Starter	Keep	101a	40.97	-81.64	1	0	0	1	Akron	OH	United States	10	Individual	Refrigerator	12	1	1	0	0	0	0	0	3	0	0	1	0	0	0	0	1	0	Glass	NonPorous	97	9006	282	-81	945	3.20E+11
S_514	sourdough_starter	Starter	Keep	403	41.05	-85.17	0	0	0	1	Fort Wayne	IN	United States	0.5	Individual	Refrigerator	3	0	1	0	0	0	0	0	7	1	0	0	0	0	0	0	0	1	Glass	NonPorous	96	9630	291	-92	930	3.13E+11
S_515	sourdough_starter	Starter	Keep	758	40.8	-73.97	0	0	0	1	New York	NY	United States	NA	Company/Business	Roomtemp	12	0	1	0	0	0	0	0	1	1	0	0	0	0	0	0	0	1	Plastic	NonPorous	120	8698	291	-41	1126	3.27E+11
S_516	sourdough_starter	Starter	Keep	912	43.06	-88.1	1	0	1	0	Brookfield	WI	United States	0.666666667	Individual	Refrigerator	6	1	0	0	0	0	0	0	5	0	1	0	0	0	0	0	0	1	Glass	NonPorous	80	10170	279	-120	814	3.01E+11
S_517	sourdough_starter	Starter	Keep	439	49.27	-123.18	0	0	0	1	Vancouver	British Columbia	Canada	34	Individual	Refrigerator	5	1	0	0	0	0	0	0	3.5	1	0	0	0	0	0	0	0	0	Glass	NonPorous	99	5175	223	1	1209	3.64E+11
S_518	sourdough_starter	Starter	Keep	442	49.27	-123.18	0	0	0	0	Vancouver	British Columbia	Canada	5	Individual	Refrigerator	5	0	0	0	0	0	0	0	7	1	0	0	0	0	0	0	0	0	Glass	NonPorous	99	5175	223	1	1209	3.64E+11
S_519	sourdough_starter	Starter	Keep	179	47.63	-122.5	0	0	1	1	Bainbridge Island	WA	United States	4	Individual	Refrigerator	6	1	0	0	0	0	0	0	4.666666667	0	1	0	0	0	0	0	0	0	Glass	NonPorous	108	4857	236	13	982	2.75E+11
S_52	sourdough_starter	Starter	Keep	34	38.88	-77.02	0	1	0	0	Washington	DC	United States	0.833333333	Individual	Refrigerator	4	1	1	0	0	0	0	0	3.5	0	1	0	0	0	0	0	1	0	Glass	NonPorous	129	8534	307	-46	1035	4.19E+11
S_520	sourdough_starter	Starter	Keep	641	44.89	-89.67	0	0	0	1	Wausau	WI	United States	7	Individual	Refrigerator	2	0	1	0	0	0	1	0	15	0	0	0	0	0	1	0	0	0	Glass	NonPorous	56	11019	270	-170	821	3.29E+11
S_521	sourdough_starter	Starter	Keep	236	-40.68	172.68	1	1	1	0	Collingwood	Tasman	New Zealand	10	Individual	Refrigerator	4	0	1	0	0	0	0	0	4.666666667	0	0	0	1	0	0	0	0	0	Glass	NonPorous	120	3333	212	26	2537	41126473728
S_522	sourdough_starter	Starter	Keep	141	35.8	-79.23	0	0	0	1	Pittsboro	NC	United States	16	Individual	Refrigerator	5	1	0	0	0	0	0	0	5	0	0	0	0	0	1	0	0	1	Glass	NonPorous	149	7564	314	-23	1169	5.07E+11
S_523	sourdough_starter	Starter	Keep	910	39.27	-74.58	0	0	0	1	Ocean City	NJ	United States	0.25	Individual	Refrigerator	10	0	0	0	0	0	0	1	2.8	0	0	0	0	0	0	1	1	0	Plastic	NonPorous	124	8086	288	-38	1065	42505998336
S_524	sourdough_starter	Starter	Keep	283	43.36	-110.72	0	1	1	0	Jackson	WY	United States	0.125	Individual	Roomtemp	10	0	1	0	0	0	0	0	4.666666667	0	0	1	0	0	1	0	1	0	Stainless Steel	Porous	21	8796	255	-166	488	1.84E+11
S_525	sourdough_starter	Starter	Keep	844	37.75	-122.41	0	0	1	1	San Francisco	CA	United States	0.5	Individual	Roomtemp	12	0	1	1	0	0	0	0	1	1	0	0	0	0	0	0	0	0	Glass	Porous	138	2355	217	66	591	47359762432
S_526	sourdough_starter	Starter	Keep	896	39.35	-123.38	1	0	0	0	Willits	CA	United States	8	Individual	Refrigerator	12	1	0	0	0	0	0	0	5	0	0	0	0	0	0	1	1	0	Glass	NonPorous	117	4467	283	2	1302	6.15E+11
S_527	sourdough_starter	Starter	Keep	914	39.03	-76.99	1	1	0	1	Silver Spring	MD	United States	10	Individual	Refrigerator	8	1	0	0	0	0	0	0	5	0	1	0	0	0	0	0	0	0	Plastic	NonPorous	125	8531	305	-49	1083	4.71E+11
S_528	sourdough_starter	Starter	Keep	837	34	-84.19	0	1	0	0	John's Creek	GA	United States	0.0625	Individual	Refrigerator	3	0	0	0	0	0	0	0	2.8	1	0	0	0	0	0	0	0	0	Stainless Steel	NonPorous	154	7258	311	-10	1351	4.52E+11
S_529	sourdough_starter	Starter	Keep	788	52.09	5.12	1	0	0	1	Utrecht	Utrecht	Netherlands	10	Individual	Refrigerator	8	1	1	0	0	0	0	0	3.5	1	0	0	0	0	0	0	0	0	Glass	NonPorous	93	5325	213	-5	803	3.04E+11
S_530	sourdough_starter	Starter	Keep	815	51.51	-0.24	NA	NA	NA	NA	London	London	United Kingdom	7	Individual	Refrigerator	6	1	0	0	0	0	0	0	3.5	1	0	0	0	0	0	0	1	0	Plastic	NonPorous	103	4827	223	9	645	2.38E+11
S_531	sourdough_starter	Starter	Keep	895a	48.88	2.34	0	0	0	1	Paris	NA	France	3	Individual	Refrigerator	12	0	1	0	0	0	0	0	0.25	0	1	0	0	0	0	0	0	0	Plastic	NonPorous	111	5704	246	5	645	1.56E+11
S_533	sourdough_starter	Starter	Keep	337	38.6	-90.25	0	0	1	1	St. Louis	MO	United States	8	Individual	Refrigerator	8	0	1	0	0	0	0	0	3.5	1	0	0	0	0	0	0	0	1	Glass	NonPorous	132	9414	321	-64	964	3.33E+11
S_534	sourdough_starter	Starter	Keep	887	35.61	-82.35	0	0	0	1	Black Mountain	NC	United States	81	Individual	Refrigerator	1	0	1	0	0	0	0	0	30	0	1	0	0	0	0	0	0	1	Glass	NonPorous	118	7084	277	-49	1308	5.32E+11
S_535	sourdough_starter	Starter	Keep	908	38.81	-104.84	0	0	0	1	Colorado Springs	CO	United States	13	Individual	Refrigerator	9	0	1	0	0	1	0	0	2.8	1	0	0	0	0	0	0	1	0	Glass	NonPorous	36	7650	234	-143	535	1.98E+11
S_536	sourdough_starter	Starter	Keep	786	53.82	-1.78	0	1	0	0	"Shipley, Bradford"	West Yorkshire	United Kingdom	10	Individual	Roomtemp	12	1	1	0	0	0	0	0	3.5	1	0	0	0	0	0	0	1	0	Ceramic	NonPorous	91	4580	200	6	889	2.97E+11
S_537	sourdough_starter	Starter	Keep	47	39.39	-76.58	0	0	0	1	Baltimore	MD	United States	1.166666667	Individual	Refrigerator	6	1	1	0	0	0	0	0	10	1	0	0	0	0	0	0	1	0	Glass	NonPorous	125	8696	307	-52	1139	4.53E+11
S_538	sourdough_starter	Starter	Keep	331	48.42	-123.31	1	0	0	0	Victoria	British Columbia	Canada	1	Individual	Roomtemp	3	0	1	0	0	0	1	0	7	1	0	0	0	0	0	0	0	0	Glass	NonPorous	99	4008	202	20	682	34764144640
S_539	sourdough_starter	Starter	Keep	663	45.5	-122.53	0	0	0	1	Portland	OR	United States	2	Individual	Roomtemp	10	0	1	1	0	0	1	0	2.8	1	0	0	0	0	0	1	1	0	Glass	Porous	116	5317	268	11	1205	3.93E+11
S_54	sourdough_starter	Starter	Keep	414	39.14	-84.37	0	0	1	1	Mariemont	OH	United States	4	Individual	Refrigerator	4	0	1	0	0	0	0	0	7	1	0	0	0	0	0	0	1	0	Plastic	NonPorous	118	8980	302	-67	1061	3.28E+11
S_540	sourdough_starter	Starter	Keep	961	26.38	-80.09	0	0	1	1	Boca Raton	FL	United States	2	Individual	Refrigerator	2	0	0	0	0	0	0	0	15	0	1	0	0	0	0	0	0	1	Glass	NonPorous	237	3345	326	134	1514	71130152960
S_541	sourdough_starter	Starter	Keep	976	37.8	-122.21	0	0	1	1	Oakland	CA	United States	1	Individual	Refrigerator	12	1	1	1	0	0	0	0	3.5	0	1	0	0	0	0	0	0	0	Glass	NonPorous	145	3078	237	57	551	4.25E+11
S_542	sourdough_starter	Starter	Keep	934	41.84	-71.4	0	0	0	1	Providence	RI	United States	0.5	Company/Business	Refrigerator	4	0	1	0	0	0	0	0	7	0	0	1	0	0	0	0	0	0	Plastic	NonPorous	95	8687	279	-84	1200	3.31E+11
S_543	sourdough_starter	Starter	Keep	978	38.55	-121.76	1	0	1	0	Davis	CA	United States	3	Individual	Refrigerator	2	0	1	1	0	1	0	0	15	0	1	0	0	0	0	0	0	0	Glass	NonPorous	159	5978	346	27	477	3.69E+11
S_544	sourdough_starter	Starter	Keep	967	44.6	-123.41	0	1	0	0	Philomath	OR	United States	38	Individual	Refrigerator	2	0	1	0	0	0	0	0	7	0	0	0	0	0	1	0	0	1	Glass	NonPorous	102	5080	261	-1	1478	5.08E+11
S_545	sourdough_starter	Starter	Keep	935	35.21	-80.86	0	0	0	1	Charlotte	NC	United States	1.333333333	Individual	Refrigerator	4	0	0	0	0	0	0	0	7	0	1	0	0	0	0	0	0	0	Plastic	NonPorous	154	7579	318	-14	1153	4.48E+11
S_547	sourdough_starter	Starter	Keep	889	42.44	-76.69	1	0	0	0	Trumansburg	NY	United States	20	Individual	Belowroomtemp	12	1	1	0	0	0	0	0	0.5	0	0	0	0	0	1	0	0	0	Plastic	NonPorous	73	9007	264	-105	905	3.60E+11
S_548	sourdough_starter	Starter	Keep	947	37.84	-122.27	0	0	1	1	Oakland	CA	United States	2	Individual	Refrigerator	4	0	1	0	0	1	0	0	3.5	1	0	0	0	0	0	0	1	0	Glass	NonPorous	143	3412	246	50	658	3.25E+11
S_549	sourdough_starter	Starter	Keep	898	42.46	-83.38	1	0	0	0	Farmington	MI	United States	19	Individual	Refrigerator	4	1	0	0	0	0	0	0	3.5	1	0	0	0	0	0	0	0	0	Plastic	NonPorous	92	9671	286	-90	791	2.67E+11
S_55	sourdough_starter	Starter	Keep	85	48	-122.05	0	0	1	1	Lake Stevens	WA	United States	0.583333333	Individual	Other	12	0	1	0	0	1	0	0	0.5	1	0	0	0	0	0	0	1	0	Glass	NonPorous	103	4779	234	7	1143	4.26E+11
S_550	sourdough_starter	Starter	Keep	948	34.05	-118.44	0	0	1	1	Los Angeles	CA	United States	1	Company/Business	Roomtemp	12	0	1	0	0	0	0	0	1	0	1	0	0	0	0	0	1	1	Plastic	NonPorous	175	3368	284	76	399	2.51E+11
S_551	sourdough_starter	Starter	Keep	963	38.36	-87.57	0	0	0	1	Princeton	IN	United States	0.5	Individual	Refrigerator	12	1	1	0	0	1	0	0	1	0	1	0	0	0	0	0	0	1	Glass	NonPorous	128	9162	313	-59	1119	3.95E+11
S_552	sourdough_starter	Starter	Keep	229	-27.55	152.91	1	0	0	0	Westlake	Queensland	Australia	7.25	Individual	Refrigerator	10	0	1	0	0	0	0	0	2.8	1	0	0	0	0	0	0	0	0	Glass	NonPorous	201	3902	304	74	1090	4.97E+11
S_553	sourdough_starter	Starter	Keep	915	40.45	-3.71	0	0	1	0	Madrid	NA	Spain	3	Individual	Refrigerator	5	1	1	0	0	0	1	0	4.666666667	0	0	1	0	0	0	0	0	1	Glass	NonPorous	138	6636	309	14	444	1.57E+11
S_554	sourdough_starter	Starter	Keep	924	64.46	11.79	1	0	0	0	Skage	Namdalen	Norway	5	Individual	Refrigerator	8	1	1	0	0	0	1	0	1.4	0	1	0	0	0	0	0	1	1	Glass	NonPorous	43	5954	169	-65	1377	96772276224
S_555	sourdough_starter	Starter	Keep	946	37.77	-122.44	0	1	0	0	San Francisco	CA	United States	3	Individual	Refrigerator	0	0	1	0	0	0	0	0	91.25	1	0	0	0	0	0	0	0	0	Plastic	NonPorous	138	2355	217	66	591	3.25E+11
S_556	sourdough_starter	Starter	Keep	933	37.78	-122.43	NA	NA	NA	NA	San Francisco	CA	United States	20	Company/Business	Refrigerator	4	1	0	0	0	0	0	0	10	0	1	0	0	0	0	0	0	0	Plastic	NonPorous	138	2355	217	66	591	3.25E+11
S_557	sourdough_starter	Starter	Keep	981	-37.65	145.53	1	0	0	1	Healesville	Victoria	Australia	10	Individual	Roomtemp	12	1	1	0	0	1	0	0	0.75	1	0	0	0	0	0	0	0	0	Ceramic	NonPorous	119	4209	252	24	1406	6.77E+11
S_558	sourdough_starter	Starter	Keep	973	38.09	-122.17	0	0	1	1	Benicia	CA	United States	0.416666667	Individual	Refrigerator	6	0	0	0	0	0	0	0	15	0	1	0	0	0	0	0	0	0	Glass	NonPorous	146	3925	264	41	629	3.96E+11
S_56	sourdough_starter	Starter	Keep	231	49.16	-121.96	1	0	1	0	Chilliwack	British Columbia	Canada	2	Individual	Roomtemp	12	1	1	0	0	0	1	0	0.5	1	0	0	0	0	0	0	0	0	Plastic	NonPorous	80	5581	220	-29	1619	4.00E+11
S_560	sourdough_starter	Starter	Keep	925	60.71	-135.09	NA	NA	NA	NA	Whitehorse	Yukon	Canada	100	NA	Refrigerator	3	0	1	0	0	0	0	0	7	1	0	0	0	0	0	0	0	0	Plastic	NonPorous	-11	11055	203	-233	270	94741536768
S_57	sourdough_starter	Starter	Keep	212	35.92	-86.01	1	0	0	0	Woodbury	TN	United States	19	Individual	Roomtemp	12	1	0	0	0	0	0	0	2.8	0	0	0	0	0	0	1	1	1	Glass	NonPorous	140	7897	312	-38	1416	4.89E+11
S_58	sourdough_starter	Starter	Keep	419	44.01	-70.06	0	0	0	1	Lisbon Falls	ME	United States	NA	Individual	Roomtemp	12	1	0	1	0	0	0	0	1.75	1	0	0	0	0	0	0	0	0	Glass	NonPorous	72	9474	264	-122	1147	3.51E+11
S_59	sourdough_starter	Starter	Keep	413	40.76	-73.95	0	0	0	1	Roosevelt Island 	NY	United States	NA	Company/Business	Refrigerator	4	0	1	0	0	0	0	0	7	0	1	0	0	0	0	0	0	0	Plastic	NonPorous	120	8698	291	-41	1126	3.27E+11
S_6	sourdough_starter	Starter	Keep	226	46.05	-118.34	0	0	0	1	Walla Walla	WA	United States	170	Company/Business	Refrigerator	2	0	1	0	0	0	0	0	15	1	0	0	0	0	0	0	1	1	Plastic	NonPorous	116	7468	320	-27	362	2.11E+11
S_60	sourdough_starter	Starter	Keep	234	33.99	-118.43	0	0	0	1	Los Angeles	CA	United States	6	Individual	Refrigerator	4	0	1	0	0	0	0	0	7	0	1	0	0	0	0	0	0	1	Plastic	NonPorous	178	2961	273	88	334	1.17E+11
S_61	sourdough_starter	Starter	Keep	504	37.33	-121.92	0	0	0	1	San Jose	CA	United States	4	Individual	Refrigerator	1	0	1	0	0	0	0	0	30	0	1	0	0	0	0	0	1	1	Glass	NonPorous	148	4123	284	35	569	2.99E+11
S_62	sourdough_starter	Starter	Keep	54	37.25	-75.94	0	0	1	1	Cape Charles	VA	United States	7	Individual	Refrigerator	4	0	1	0	0	0	0	0	3	0	0	0	0	0	1	0	0	1	Plastic	NonPorous	148	7658	301	-9	1066	48468037632
S_63	sourdough_starter	Starter	Keep	154	34	-118.4	0	0	0	1	Culver City	CA	United States	3	Individual	Refrigerator	8	0	1	0	0	0	0	0	3.75	0	1	0	0	0	0	0	1	0	Glass	Porous	178	2961	273	88	334	1.17E+11
S_64	sourdough_starter	Starter	Keep	214	35.2	-111.57	1	0	0	0	Flagstaff	AZ	United States	0.583333333	Individual	Refrigerator	8	1	1	0	0	0	0	0	3.5	0	1	0	0	0	0	0	1	0	Glass	NonPorous	74	7117	268	-91	536	2.46E+11
S_65	sourdough_starter	Starter	Keep	356	38.95	-104.75	0	0	0	1	Colorado Springs	CO	United States	125	Individual	Refrigerator	3	1	0	0	0	0	0	0	3.5	0	1	0	0	0	0	0	0	1	Glass	NonPorous	79	7952	285	-105	432	1.42E+11
S_66	sourdough_starter	Starter	Keep	418	36.15	-86.8	NA	NA	NA	NA	Nashville	TN	United States	1	Company/Business	Refrigerator	2	0	0	0	1	0	0	0	7	1	0	0	0	0	0	0	0	0	Ceramic	NonPorous	144	8243	320	-35	1232	5.27E+11
S_67	sourdough_starter	Starter	Keep	83	42.57	-71.43	0	0	0	1	Westford	MA	United States	15	Company/Business	Refrigerator	12	0	1	0	0	1	0	0	7	1	0	0	0	0	0	0	0	1	Plastic	NonPorous	88	9155	281	-100	1109	3.76E+11
S_68	sourdough_starter	Starter	Keep	275	37.81	-122.23	1	0	1	1	Oakland	CA	United States	2.5	Individual	Refrigerator	10	0	1	0	0	0	0	0	7	0	0	1	0	0	0	0	0	0	Glass	NonPorous	145	3078	237	57	551	4.25E+11
S_69	sourdough_starter	Starter	Keep	290	42.35	-71.06	0	0	1	0	Boston	MA	United States	3	Individual	Refrigerator	4	0	1	0	0	0	0	0	7	0	1	0	0	0	0	0	0	0	Glass	NonPorous	96	8769	281	-81	1121	3.62E+11
S_7	sourdough_starter	Starter	Keep	130	43.93	-69.94	0	0	1	1	Topsham	ME	United States	4.166666667	Individual	Refrigerator	2	0	1	0	0	0	0	0	15	0	1	0	0	0	0	0	0	0	Ceramic	NonPorous	76	9221	261	-113	1142	32404924416
S_70	sourdough_starter	Starter	Keep	299	40.2	-105.54	0	1	0	0	Allenspark	CO	United States	7	Company/Business	Refrigerator	1	0	1	0	0	0	0	0	30	1	0	0	0	0	0	0	1	0	Glass	NonPorous	4	7349	197	-153	641	2.03E+11
S_71	sourdough_starter	Starter	Keep	402	41.15	-96.01	0	0	0	1	Papillion	NE	United States	1	Company/Business	Refrigerator	8	1	0	0	0	0	0	0	7	0	0	1	0	0	0	0	1	0	Glass	NonPorous	102	10484	306	-115	774	3.03E+11
S_72	sourdough_starter	Starter	Keep	215	35.81	-78.69	0	0	0	1	Raleigh 	NC	United States	2	Company/Business	Refrigerator	3	0	1	0	0	0	0	0	10	0	1	0	0	0	0	0	0	1	Plastic	NonPorous	152	7546	315	-16	1148	4.26E+11
S_73	sourdough_starter	Starter	Keep	375	30.57	-96.3	0	1	0	0	College Station	TX	United States	0.75	Individual	Refrigerator	1	1	0	0	0	0	0	0	10	0	0	1	0	0	0	0	0	1	Glass	NonPorous	199	6820	355	39	1020	4.34E+11
S_74	sourdough_starter	Starter	Keep	227	37.8	-122.21	1	0	0	1	Oakland	CA	United States	7	Individual	Refrigerator	2	1	1	0	0	1	0	0	15	1	0	0	0	0	0	0	0	0	Glass	NonPorous	145	3078	237	57	551	4.25E+11
S_75	sourdough_starter	Starter	Keep	433	33.46	-88.82	0	0	1	0	Starkville	MS	United States	4	Individual	Roomtemp	12	1	0	0	0	0	0	0	0.333333333	1	0	0	0	0	0	0	0	0	Plastic	NonPorous	167	7341	326	1	1412	5.64E+11
S_76	sourdough_starter	Starter	Keep	373	41.31	-105.59	NA	NA	NA	NA	Laramie	WY	United States	2.25	Individual	Refrigerator	4	0	1	0	0	0	0	0	7	1	0	0	0	0	0	0	1	1	Glass	NonPorous	48	8124	262	-120	344	1.12E+11
S_77	sourdough_starter	Starter	Keep	232	44.48	-73.21	0	0	0	1	Burlington	VT	United States	1.666666667	Individual	Refrigerator	7	1	1	0	0	0	0	0	7	1	0	0	0	0	0	0	0	0	Glass	NonPorous	71	10115	275	-135	847	3.35E+11
S_78	sourdough_starter	Starter	Keep	468	39.1	-77.24	0	0	1	0	n potomac	MD	United States	0.083333333	Individual	Roomtemp	8	0	1	0	0	0	0	0	2.8	0	1	0	0	0	0	0	0	0	Plastic	NonPorous	123	8509	303	-53	1021	5.23E+11
S_79	sourdough_starter	Starter	Keep	152	33.73	-84.37	0	0	1	1	Atlanta	GA	United States	0.5	Individual	Refrigerator	4	1	1	0	0	0	0	0	7	0	1	0	0	0	0	0	1	1	Plastic	NonPorous	159	7327	316	-4	1301	4.32E+11
S_8	sourdough_starter	Starter	Keep	262	38.44	-122.86	0	0	1	1	Sebastopol	CA	United States	0.666666667	Individual	Refrigerator	4	1	1	0	0	0	0	0	7	0	1	0	0	0	1	0	0	0	Plastic	NonPorous	133	3766	268	25	1117	5.71E+11
S_80	sourdough_starter	Starter	Keep	153	44.03	-123.06	1	0	0	1	Eugene	OR	United States	1	Individual	Refrigerator	4	1	1	0	0	0	0	0	7	1	0	0	0	0	0	0	0	1	Plastic	NonPorous	114	5107	274	12	1231	4.21E+11
S_81	sourdough_starter	Starter	Keep	497	38.59	-122.59	0	1	0	1	Calistoga	CA	United States	0.0625	Individual	Roomtemp	12	1	0	0	0	0	0	0	1	1	0	0	0	0	0	0	0	0	Plastic	NonPorous	138	5100	311	18	1055	6.05E+11
S_82	sourdough_starter	Starter	Keep	159	40.84	-83.27	0	0	0	1	Upper Sandusky	OH	United States	12	Individual	Refrigerator	8	0	0	0	0	0	0	0	2.333333333	0	1	0	0	0	0	0	0	0	Ceramic	NonPorous	99	9315	291	-83	908	2.87E+11
S_83	sourdough_starter	Starter	Keep	481	32.37	-86.27	0	1	0	0	Montgomery	AL	United States	212	Company/Business	Refrigerator	1	0	1	0	0	0	0	0	30	1	0	0	0	0	0	0	0	1	Plastic	NonPorous	180	6986	330	19	1333	5.15E+11
S_84	sourdough_starter	Starter	Keep	259	20.82	-156.29	1	0	0	1	Makawao	HI	United States	4	Individual	Refrigerator	12	1	1	0	0	0	0	0	3	1	0	0	0	0	0	0	0	0	Glass	NonPorous	142	1273	205	78	1873	NA
S_85	sourdough_starter	Starter	Keep	327	41.24	-95.96	1	0	1	1	Omaha	NE	United States	3	Individual	Refrigerator	3	0	1	1	0	0	0	0	17	1	0	0	0	0	0	0	0	0	Ceramic	NonPorous	102	10560	305	-114	772	3.29E+11
S_86	sourdough_starter	Starter	Keep	393	44.71	-72.94	0	0	1	0	East Fairfield	VT	United States	5	Individual	Roomtemp	12	0	1	0	0	1	0	0	0.5	1	0	0	0	0	1	0	1	1	Glass	NonPorous	58	10178	258	-149	1001	3.40E+11
S_87	sourdough_starter	Starter	Keep	389	44.93	-93.16	NA	NA	NA	NA	Saint Paul	MN	United States	200	Company/Business	Refrigerator	3	0	1	0	0	1	0	0	7	0	0	1	0	0	0	0	1	0	Plastic	NonPorous	73	11493	288	-157	761	2.82E+11
S_88	sourdough_starter	Starter	Keep	291	35.94	-78.96	0	0	0	1	Durham	NC	United States	5	Individual	Refrigerator	3	0	1	0	0	0	0	0	10	1	0	0	0	0	0	0	0	1	Plastic	NonPorous	150	7616	317	-21	1141	4.32E+11
